crs,station_name,longitude,latitude
ABW,Abbey Wood,0.121394025366647,51.4910605627019
ABE,Aber,-3.22982905106563,51.5749691125956
ACY,Abercynon,-3.32698855170195,51.6447124034837
ABA,Aberdare,-3.44308409477462,51.7150618291708
ABD,Aberdeen,-2.09868538622245,57.1437058328662
AUR,Aberdour,-3.30056061487314,56.0545955695197
AVY,Aberdovey,-4.05706796158074,52.5439615025967
ABH,Abererch,-4.37417647351973,52.8985884658899
AGV,Abergavenny,-3.00964730040687,51.8166930409601
AGL,Abergele and Pensarn,-3.58262268840784,53.2945771647609
AYW,Aberystwyth,-4.08189442746786,52.4140498933205
ACR,Accrington,-2.36954810226505,53.7529733751372
AAT,Achanalt,-4.91385256332031,57.6096018732679
ACN,Achnasheen,-5.07233352893289,57.5792959197415
ACH,Achnashellach,-5.33305678830677,57.4820809030767
ACK,Acklington,-1.65183479633575,55.3070993237817
ACL,Acle,1.54391497575916,52.6346777628319
ACG,Acocks Green,-1.81897562150643,52.4493240670217
ACB,Acton Bridge (Cheshire),-2.60312690733168,53.2665097605329
ACC,Acton Central,-0.262970693276422,51.5087150057177
AML,Acton Main Line,-0.266756440210259,51.5171788796431
ADD,Adderley Park,-1.85594463679675,52.4830872932844
ADW,Addiewell,-3.60652712168835,55.8434130805542
ASN,Addlestone,-0.48445679693337,51.3730447500684
ADM,Adisham,1.19908904695378,51.2411978022143
ADC,Adlington (Cheshire),-2.13356274381038,53.3195557900317
ADL,Adlington (Lancashire),-2.6030711963325,53.6132468473224
AWK,Adwick,-1.180356329611,53.5723210050351
AIG,Aigburth,-2.92715540113816,53.3645680055959
ANS,Ainsdale,-3.04265252059266,53.6020355257546
AIN,Aintree,-2.95628079876913,53.4739127558616
AIR,Airbles,-3.99419330717581,55.7828378389089
ADR,Airdrie,-3.98291292517007,55.8639835131324
AYP,Albany Park,0.12573706592842,51.4354507399114
ALB,Albrighton,-2.26890024505565,52.6379442676754
ALD,Alderley Edge,-2.23679936267512,53.3037821045932
AMT,Aldermaston,-1.1374239270022,51.4019618556841
AHT,Aldershot,-0.759859888333875,51.2464179114788
AGT,Aldrington,-0.183821512855377,50.8363824121951
AAP,Alexandra Palace,-0.120235220128854,51.5979224924556
AXP,Alexandra Parade,-4.21064896878422,55.8631759802332
ALX,Alexandria,-4.57748537031666,55.9850887680667
ALF,Alfreton,-1.36969621564025,53.1004322999438
ALW,Allens West,-1.36111683481751,54.5246233650745
ALO,Alloa,-3.79005640302655,56.1177936041036
ASS,Alness,-4.24971726526612,57.6943991747966
ALM,Alnmouth,-1.63663783937358,55.3927786386397
ALR,Alresford (Essex),0.997436403040026,51.8539974379073
ASG,Alsager,-2.29905784069112,53.0930054110113
ALN,Althorne (Essex),0.75248341471277,51.6478675266105
ALP,Althorpe,-0.733182290833722,53.5855003548442
ABC,Altnabreac,-3.7062809681672,58.3881525009701
AON,Alton,-0.966913302570746,51.1519686627366
ALT,Altrincham,-2.34688910433965,53.3877187203289
ALV,Alvechurch,-1.96766073187852,52.3460721156993
AMB,Ambergate,-1.48069758186533,53.0605170840145
AMY,Amberley,-0.541992407726222,50.8966791881016
AMR,Amersham,-0.607596139216709,51.6742050968552
AMF,Ammanford,-3.99673575596767,51.7959795450084
ANC,Ancaster,-0.535623734022494,52.9876865844111
AND,Anderston,-4.27098003165416,55.8599021238713
ADV,Andover,-1.49223307188506,51.2115476149434
ANZ,Anerley,-0.0658859220340606,51.4121513855632
AGR,Angel Road,-0.0487914234374522,51.61240330726
ANG,Angmering,-0.489394019247872,50.8165743892467
ANN,Annan,-3.2625810423293,54.9838388790739
ANL,Anniesland,-4.32195784208586,55.8893555064876
AFV,Ansdell and Fairhaven,-2.99303444657805,53.7414654744213
APY,Apperley Bridge,-1.70582867126391,53.8417501065548
APP,Appleby,-2.48669258391647,54.5803488158896
APD,Appledore (Kent),0.816341504124954,51.0332342031393
APF,Appleford,-1.24214153179695,51.6396415502262
APB,Appley Bridge,-2.71925251339081,53.5786734960166
APS,Apsley,-0.462934812195194,51.7325208234117
ARB,Arbroath,-2.58893177406225,56.5595762979872
ARD,Ardgay,-4.36209023833324,57.8814576101148
AUI,Ardlui,-4.72165858161935,56.3019723653141
ADS,Ardrossan Harbour,-4.82111163323781,55.6398782290401
ASB,Ardrossan South Beach,-4.80121264089138,55.641422142645
ADN,Ardrossan Town,-4.81267645169651,55.6397124556587
ADK,Ardwick,-2.21388417456067,53.471345820655
AGS,Argyle Street,-4.25069486323156,55.8573090626122
ARG,Arisaig,-5.83907949880085,56.9125537431151
ARL,Arlesey,-0.266319838272065,52.0260300130868
ARM,Armadale (West Lothian),-3.69541334262219,55.8857140292087
AWT,Armathwaite,-2.77207147292765,54.8094679848183
ARN,Arnside,-2.82824189170434,54.2027315043991
ARR,Arram,-0.426570132093475,53.8843427696163
ART,Arrochar and Tarbet,-4.72277124702392,56.2039766194239
ARU,Arundel,-0.546174298416944,50.84821399905
ACT,Ascot (Berks),-0.675833255037063,51.406243053303
AUW,Ascott-Under-Wychwood,-1.56405280921503,51.8673416456497
ASH,Ash,-0.712805474371656,51.2495967734882
AHV,Ash Vale,-0.72164859629209,51.2722464128127
ABY,Ashburys,-2.19443661452133,53.471639721401
ASC,Ashchurch for Tewkesbury,-2.10876020926952,51.9989057939667
ASF,Ashfield,-4.24921509407071,55.8889269328418
AFS,Ashford (Surrey),-0.468070995385795,51.4365062586203
AFK,Ashford International,0.876197214386404,51.1437026741936
ASY,Ashley,-2.34146074338483,53.3557258053839
AHD,Ashtead,-0.307571763628547,51.317872587997
AHN,Ashton-Under-Lyne,-2.09431253377749,53.4912746360398
AHS,Ashurst (Kent),0.152652111896866,51.1286608253579
ANF,Ashurst New Forest,-1.52663085660955,50.8898511647037
AWM,Ashwell and Morden,-0.109788918120069,52.0307706434447
ASK,Askam,-3.20451175494515,54.1889331625586
ALK,Aslockton,-0.898097621841918,52.9515495737311
ASP,Aspatria,-3.33187421074512,54.7589599137074
APG,Aspley Guise,-0.632334507265971,52.0212361960308
AST,Aston,-1.8719337575538,52.5042320347358
ATH,Atherstone,-1.55281147568713,52.5789720633612
ATN,Atherton,-2.47897234425216,53.5291462480773
ATT,Attadale,-5.4555786528295,57.3950433711996
ATB,Attenborough,-1.23141560765685,52.9062133028873
ATL,Attleborough,1.02234755537498,52.5145445883409
AUK,Auchinleck,-4.29535018687193,55.4702784722357
AUD,Audley End,0.207160027997398,52.0044405435161
AUG,Aughton Park,-2.89522128047861,53.5542504500956
AVM,Aviemore,-3.82886797624022,57.1885162452285
AVF,Avoncliff,-2.28132558221387,51.3396528744674
AVN,Avonmouth,-2.69946651797304,51.5003648679963
AXM,Axminster,-3.00472359764506,50.7792744117621
AYS,Aylesbury,-0.815095998270687,51.8138902206829
AVP,Aylesbury Vale Parkway,-0.860182437861177,51.8311587338339
AYL,Aylesford,0.466170568242092,51.3013153585378
AYH,Aylesham,1.2094526827124,51.2272505439136
AYR,Ayr,-4.62587677242484,55.4581477383334
BAC,Bache,-2.89167051075084,53.2087886904783
BAJ,Baglan,-3.81113654529303,51.615545271975
BAG,Bagshot,-0.688661997063008,51.3643669407293
BLD,Baildon,-1.75363638811678,53.8502255005868
BIO,Baillieston,-4.11369931815988,55.844505909339
BAB,Balcombe,-0.136933757536862,51.0555201604538
BDK,Baldock,-0.187563753520231,51.9928698318742
BAL,Balham,-0.152424495700288,51.4432234163815
BHC,Balloch,-4.58348654319574,56.0029392993731
BSI,Balmossie,-2.83895622541232,56.4745685552318
BMB,Bamber Bridge,-2.6607753764786,53.7268691714662
BAM,Bamford,-1.68908191470249,53.3390008432273
BNV,Banavie,-5.09542698683765,56.8433146084024
BAN,Banbury,-1.32813289497966,52.0603086671337
BNG,Bangor (Gwynedd),-4.1358808597691,53.2222875881889
BAH,Bank Hall,-2.98751189569183,53.4374965462522
BAD,Banstead,-0.213158931277083,51.3293474848423
BSS,Barassie,-4.65113966824502,55.5610644543682
BLL,Bardon Mill,-2.34650475516335,54.9744957852522
BAR,Bare Lane,-2.83533086719705,54.0745443408907
BGI,Bargeddie,-4.07380825280165,55.8512961462984
BGD,Bargoed,-3.22968013064506,51.6923127611933
BKG,Barking,0.0809024258638578,51.5394928787692
BGV,Barking Riverside,0.114769,51.519112
BMG,Barming,0.478958086821072,51.2848926922128
BRM,Barmouth,-4.05659664341287,52.7228954666472
BNH,Barnehurst,0.159646215915891,51.4649571594916
BNS,Barnes,-0.242164290131055,51.4670847781107
BNI,Barnes Bridge,-0.252630234454485,51.4720072305495
BTB,Barnetby,-0.409679706265516,53.575120046432
BAA,Barnham,-0.639679954401345,50.8309058508596
BNL,Barnhill,-4.22300584363342,55.8774948886876
BNY,Barnsley,-1.47716484028851,53.5543015489003
BNP,Barnstaple,-4.06311775092404,51.0739744679973
BTG,Barnt Green,-1.99246673824797,52.3610898378667
BRR,Barrhead,-4.39728431394783,55.8037583421428
BRL,Barrhill,-4.78178229089313,55.0970106102442
BAV,Barrow Haven,-0.392955239385703,53.697419946542
BIF,Barrow-In-Furness,-3.22612090695349,54.1190037011827
BWS,Barrow-Upon-Soar,-1.14484305880024,52.7493358553102
BRY,Barry,-3.28498495899336,51.3967862682376
BYD,Barry Docks,-3.26070393235989,51.4024452836283
BYI,Barry Island,-3.27336400852697,51.3924170726249
BYL,Barry Links,-2.74544214683501,56.4931516826701
BAU,Barton-On-Humber,-0.44343673614012,53.6889177395454
BSO,Basildon,0.456788850539816,51.5681040297501
BSK,Basingstoke,-1.08726383162934,51.2683569850094
BBL,Bat and Ball,0.194227480292899,51.2897587469008
BTH,Bath Spa,-2.3570184714201,51.3776883852266
BHG,Bathgate,-3.63609679157923,55.8971563834902
BTL,Batley,-1.6229526318262,53.7099423400798
BTT,Battersby,-1.09297186288525,54.457680170473
BAK,Battersea Park,-0.147533519657093,51.4769582891996
BAT,Battle,0.494702777064857,50.9129130238687
BLB,Battlesbridge,0.56528550890708,51.624822766888
BAY,Bayford,-0.0956100209046352,51.7577148923117
BCF,Beaconsfield,-0.643822282354315,51.6112905925788
BER,Bearley,-1.75025547969474,52.2444115945748
BRN,Bearsden,-4.3320211452141,55.9171345827093
BSD,Bearsted,0.577580355704965,51.2758187894535
BSL,Beasdale,-5.76380325043513,56.8995610683265
BEU,Beaulieu Road,-1.50474962699015,50.8550493435382
BEL,Beauly,-4.46986686037102,57.4782879378611
BEB,Bebington,-3.00363517233964,53.3576570664328
BCC,Beccles,1.5694932615698,52.4585181871493
BEC,Beckenham Hill,-0.0159511139458484,51.4245808668055
BKJ,Beckenham Junction,-0.0260225635677561,51.4111718661491
BDM,Bedford,-0.479442379912954,52.1361864656103
BSJ,Bedford St Johns,-0.467501028060375,52.1294772366621
BDH,Bedhampton,-0.99582843515536,50.8539566355958
BMT,Bedminster,-2.59414932604792,51.4400904239394
BEH,Bedworth,-1.46739223305473,52.4792974206142
BDW,Bedwyn,-1.59878627020561,51.3796409426581
BEE,Beeston,-1.20765801407939,52.9207551214346
BKS,Bekesbourne,1.13670763163281,51.2613539349877
BLV,Belle Vue,-2.18050724055323,53.4623764935822
BLG,Bellgrove,-4.22437490020632,55.8567093051092
BGM,Bellingham,-0.0193308081217253,51.4329113825773
BLH,Bellshill,-4.02449996284266,55.8170682424416
BLM,Belmont,-0.198855124360003,51.3438134158344
BLP,Belper,-1.48251049959613,53.0237591485711
BEG,Beltring,0.403495486821792,51.2047063375307
BVD,Belvedere,0.152286098901381,51.4921162437256
BEM,Bempton,-0.18045684367924,54.1276580609781
BEY,Ben Rhydding,-1.79743026313235,53.9257153348267
BEF,Benfleet,0.561713345502072,51.5439424321207
BEN,Bentham,-2.51067651046258,54.1155197017626
BTY,Bentley (Hampshire),-0.868126900052275,51.1812327932647
BYK,Bentley (South Yorkshire),-1.15094859528964,53.543936635355
BAS,Bere Alston,-4.20035543651004,50.4855988011236
BFE,Bere Ferrers,-4.18143518031599,50.4512820780774
BKM,Berkhamsted,-0.562012981628892,51.7631330812332
BKW,Berkswell,-1.64284047482006,52.3958819317755
BEP,Bermuda Park,-1.47217775464212,52.5014343619449
BYA,Berney Arms,1.63037533346209,52.5897827472666
BBW,Berry Brow,-1.79343228301033,53.6210419716152
BRS,Berrylands,-0.280713667843256,51.3990439366779
BRK,Berwick (Sussex),0.166017608785235,50.8403762860459
BWK,Berwick-Upon-Tweed,-2.01097357377303,55.7743389009866
BES,Bescar Lane,-2.9146110021991,53.623855333027
BSC,Bescot Stadium,-1.9911057185482,52.5630947071172
BTO,Betchworth,-0.266973015200458,51.2481879331766
BET,Bethnal Green Rail,-0.0595680464428894,51.5239156627757
BYC,Betws-y-Coed,-3.80086212197837,53.0920709395504
BEV,Beverley,-0.422980126740875,53.8422725915824
BEX,Bexhill,0.477016592346932,50.84103990242
BXY,Bexley,0.147902494716889,51.4402175270263
BXH,Bexleyheath,0.133734871030645,51.4634982236074
BCS,Bicester North,-1.15038352192815,51.9034829537461
BIT,Bicester Village,-1.14876425178293,51.8930236127002
BKL,Bickley,0.0452405405139698,51.4001024308637
BID,Bidston,-3.07856110228132,53.4091398593576
BIW,Biggleswade,-0.261187193156868,52.0846785950736
BBK,Bilbrook,-2.18608801838282,52.6237197237583
BIC,Billericay,0.418629610467223,51.6288812691945
BIL,Billingham,-1.27971968622732,54.605606575355
BIG,Billingshurst,-0.450302232654151,51.0152034952011
BIN,Bingham,-0.95154335353279,52.9541905628363
BIY,Bingley,-1.8373224993653,53.8486154371384
BCG,Birchgrove,-3.20185379786194,51.5215597229164
BCH,Birchington-On-Sea,1.3014083545974,51.3774886896266
BWD,Birchwood,-2.5253082468513,53.4127205850305
BIK,Birkbeck,-0.0557387405611835,51.4038899816034
BDL,Birkdale,-3.01445011129132,53.6340528065899
BKC,Birkenhead Central,-3.02082115838918,53.3883166263867
BKQ,Birkenhead Hamilton Square,-3.01368016573114,53.3946967251861
BKN,Birkenhead North,-3.05753365912751,53.4044379353974
BKP,Birkenhead Park,-3.03910128885113,53.3974085855031
BHI,Birmingham International,-1.72585685988124,52.4508081112451
BMO,Birmingham Moor Street,-1.89247273057604,52.479080623723
BHM,Birmingham New Street,-1.9002055706822,52.4778198092097
BSW,Birmingham Snow Hill,-1.89908868312646,52.4833566780576
BIA,Bishop Auckland,-1.67771509725951,54.6571963763698
BBG,Bishopbriggs,-4.22491571705821,55.9038831792009
BIB,Bishops Lydeard,-3.1942,51.0541
BIS,Bishops Stortford,0.16489410333554,51.8666894209812
BIP,Bishopstone (Sussex),0.082756921439231,50.7801416620368
BPT,Bishopton (Renfrewshire),-4.5004875625329,55.9022694882255
BTE,Bitterne,-1.37699961416727,50.9182213632939
BBN,Blackburn,-2.47912240276289,53.7465184457461
BFR,Blackfriars,-0.103332073034139,51.51180819479
BKH,Blackheath,0.00887187089452019,51.4657945200002
BHO,Blackhorse Road,-0.0412357433706351,51.58660384873
BPN,Blackpool North,-3.04927516714828,53.8219180942013
BPB,Blackpool Pleasure Beach,-3.05387646984086,53.7879555202556
BPS,Blackpool South,-3.04893832565541,53.7987040263195
BKR,Blackridge,-3.75079743413867,55.8842557507999
BLK,Blackrod,-2.56952431744104,53.5915244932358
BAW,Blackwater,-0.776741026218888,51.3315811457068
BFF,Blaenau Ffestiniog,-3.93859577234881,52.9945530771849
BLA,Blair Atholl,-3.85022876626298,56.7655504660718
BAI,Blairhill,-4.0432911996593,55.8664556230225
BKT,Blake Street,-1.84491459685048,52.6048860712992
BKD,Blakedown,-2.17686566095142,52.4064026596129
BLT,Blantyre,-4.08697164977011,55.7973304780703
BLO,Blaydon,-1.71258088882198,54.9657896857216
BSB,Bleasby,-0.943687538181265,53.0413649497003
BLY,Bletchley,-0.736320506839459,51.9953339717924
BLX,Bloxwich,-2.01147807238452,52.6182018754768
BWN,Bloxwich North,-2.01768461058018,52.6254378492086
BLN,Blundellsands and Crosby,-3.03986028592851,53.4876867000616
BYB,Blythe Bridge,-2.06696136521393,52.9681439666743
BOD,Bodmin Parkway,-4.66292953056928,50.4458686645733
BOR,Bodorgan,-4.41800424551237,53.2043074000119
BOG,Bognor Regis,-0.676178286011514,50.7865584395345
BGS,Bogston,-4.71140217696609,55.9370473872407
BON,Bolton,-2.42582497565139,53.5741455351566
BTD,Bolton-Upon-Dearne,-1.31154616002462,53.5189470302023
BDS,Bond Street,-0.149614,51.513797
BKA,Bookham,-0.384020684769355,51.2887375770933
BOC,Bootle (Cumbria),-3.39386227213438,54.2913058315169
BNW,Bootle New Strand,-2.99474773972908,53.4533917659639
BOT,Bootle Oriel Road,-2.9957338918952,53.4466239167649
BBS,Bordesley,-1.87776885469942,52.4718743800827
BRG,Borough Green and Wrotham,0.306244959659036,51.2932170234776
BRH,Borth,-4.05017708151719,52.4910318901744
BOH,Bosham,-0.847431235664145,50.8427472866996
BSN,Boston,-0.03100323679323,52.9780883520384
BOE,Botley,-1.25923650546392,50.9164546156522
BTF,Bottesford,-0.794842711685305,52.9446141670485
BNE,Bourne End,-0.710473547391366,51.5771173647136
BMH,Bournemouth,-1.86450316465566,50.7272746595869
BRV,Bournville,-1.92642405915734,52.4269645832552
BWB,Bow Brickhill,-0.696077833880482,52.0043001848605
BOW,Bow Street,-4.0319599,52.4392199
BOP,Bowes Park,-0.120581954633459,51.6070103763875
BWG,Bowling,-4.49384261915191,55.9310849001239
BXW,Box Hill and Westhumble,-0.328489952956063,51.2540106794359
BCE,Bracknell,-0.751703650172948,51.4130914141393
BDQ,Bradford Forster Square,-1.75296173787813,53.7969256219995
BDI,Bradford Interchange,-1.74959589964649,53.7910764525054
BOA,Bradford-On-Avon,-2.25232693866303,51.3449161602034
BDN,Brading,-1.13872244962043,50.6783720718463
BTR,Braintree,0.556686982906197,51.8753890748181
BTP,Braintree Freeport,0.568434688069829,51.8694135093739
BML,Bramhall,-2.16359288123925,53.360614520234
BMY,Bramley (Hampshire),-1.06100278415591,51.3302932744388
BLE,Bramley (West Yorkshire),-1.63720635437646,53.8053497570895
BMP,Brampton (Cumbria),-2.70294760254176,54.9323930102284
BRP,Brampton (Suffolk),1.54381046672808,52.3954307722651
BCN,Branchton,-4.80354935893801,55.9406016000061
BND,Brandon,0.624731734521936,52.4540047306678
BSM,Branksome,-1.91975842787338,50.7269660330633
BYS,Braystones,-3.54182643942065,54.4393640536404
BDY,Bredbury,-2.11048830300964,53.4231550957567
BRC,Breich,-3.66812586892786,55.8273164832767
BCZ,Brent Cross West,-0.2269,51.5687
BFD,Brentford,-0.3096509962364,51.4875457097478
BRE,Brentwood,0.2995857793073,51.6136030493508
BWO,Bricket Wood,-0.359115040469,51.7054267834401
BEA,Bridge Of Allan,-3.95722936202684,56.1566398048563
BRO,Bridge Of Orchy,-4.76299400728156,56.5158728605762
BGN,Bridgend,-3.57527638119945,51.5069776497295
BDG,Bridgeton,-4.22605724682491,55.8489676845822
BWT,Bridgwater,-2.99040597303838,51.1278595271724
BDT,Bridlington,-0.198720390714093,54.0841300013586
BRF,Brierfield,-2.23649020577414,53.8239823807197
BGG,Brigg,-0.486124757673641,53.5491442686681
BGH,Brighouse,-1.77943904000537,53.6981985445311
BTN,Brighton,-0.141280362604851,50.8290032740444
BMD,Brimsdown,-0.0308174334464399,51.6555817179022
BNT,Brinnington,-2.13512015019042,53.4321182782686
BPW,Bristol Parkway,-2.54216343130652,51.5138036668802
BRI,Bristol Temple Meads,-2.58131562733598,51.449146420501
BHD,Brithdir,-3.22872077880337,51.7103060616454
BNF,Briton Ferry,-3.81925304025098,51.6379005035521
BRX,Brixton,-0.114183479348404,51.4632974069132
BGE,Broad Green,-2.8934843782564,53.4065063198581
BDB,Broadbottom,-2.01652101691897,53.4409753914717
BSR,Broadstairs,1.43356042841681,51.3606706129939
BCU,Brockenhurst,-1.57353117285741,50.8168418133325
BHS,Brockholes,-1.76969142002127,53.5969730380642
BCY,Brockley,-0.0375366925196268,51.4646472014469
BOM,Bromborough,-2.98689585549247,53.3218495381578
BMR,Bromborough Rake,-2.98946942122466,53.3299093778849
BMC,Bromley Cross (Lancs),-2.41089911446368,53.6140430093272
BMN,Bromley North,0.0169926357417391,51.4083259856208
BMS,Bromley South,0.0173440284479178,51.3999745779484
BMV,Bromsgrove,-2.04734524157192,52.3222879772082
BSY,Brondesbury,-0.202308734122339,51.5451643215911
BSP,Brondesbury Park,-0.210127665126915,51.5406977630272
BPK,Brookmans Park,-0.204548729285783,51.7210604040222
BKO,Brookwood,-0.635747900032551,51.3037572593507
BME,Broome,-2.88520796216339,52.4227745962921
BMF,Broomfleet,-0.671828400321333,53.7402076992399
BRA,Brora,-3.85228367382381,58.012954677959
BUH,Brough,-0.578724236728498,53.726959736948
BYF,Broughty Ferry,-2.87315275743822,56.4671632427311
BXB,Broxbourne,-0.0110867237416249,51.7469087203036
BCV,Bruce Grove,-0.0698670703254643,51.5939575362971
BDA,Brundall,1.43929868679443,52.6194794445227
BGA,Brundall Gardens,1.41841612253682,52.623439277351
BSU,Brunstane,-3.10098653970798,55.9425140850115
BRW,Brunswick,-2.97607735757102,53.3832435421687
BRU,Bruton,-2.44707381432238,51.1116412233567
BYN,Bryn,-2.6472139954436,53.4998691660173
BUC,Buckenham,1.47032522512213,52.5977342869752
BCK,Buckley,-3.05592619131988,53.163039091322
BUK,Bucknell,-2.94737831871819,52.3573820377697
BSV,Buckshaw Parkway,-2.6608302706882,53.6733436562841
BGL,Bugle,-4.79210144517706,50.4003548175137
BHR,Builth Road,-3.42703322967269,52.1693260878635
BLW,Bulwell,-1.19623056375416,52.9996957837852
BUE,Bures,0.769143780923498,51.9711590332091
BUG,Burgess Hill,-0.127412852764647,50.9536546008005
BUY,Burley Park,-1.57776768947798,53.8120311080587
BUW,Burley-In-Wharfedale,-1.75337211508043,53.9081516997075
BNA,Burnage,-2.21567840315285,53.4211687602571
BUD,Burneside (Cumbria),-2.76667730640148,54.3549826054845
BNM,Burnham,-0.646373823188634,51.5235048795581
BUU,Burnham-On-Crouch,0.814027782561537,51.6336547723703
BUB,Burnley Barracks,-2.25808600820696,53.7908801067712
BNC,Burnley Central,-2.24497131410056,53.7935141377532
BYM,Burnley Manchester Road,-2.24886752625716,53.784967519749
BUI,Burnside (South Lanarkshire),-4.20239033426663,55.8169313339993
BTS,Burntisland,-3.23319831966981,56.0570842114504
BCB,Burscough Bridge,-2.84088028461687,53.6052595050232
BCJ,Burscough Junction,-2.84060569626726,53.5975223038556
BUO,Bursledon,-1.30503236047306,50.8836886125224
BUJ,Burton Joyce,-1.04087761567102,52.9834418843688
BUT,Burton-On-Trent,-1.64245997205794,52.8058165084357
BSE,Bury St Edmunds,0.713306656862091,52.2537604920335
BUS,Busby,-4.26220173231044,55.7803445376612
BHK,Bush Hill Park,-0.0692211146516689,51.6415169536941
BSH,Bushey,-0.385321269560704,51.6457502336329
BUL,Butlers Lane,-1.83802031828625,52.5924709448511
BXD,Buxted,0.131438921683175,50.9900108378352
BUX,Buxton,-1.91286358993768,53.2607227045765
BFN,Byfleet and New Haw,-0.481389767596653,51.3497957278428
BYE,Bynea,-4.09888164715589,51.6720366859549
CAD,Cadoxton,-3.24889594393883,51.4122831697514
CGW,Caergwrle,-3.03291327418616,53.1078664074892
CPH,Caerphilly,-3.21848255919666,51.57158067131
CWS,Caersws,-3.43249879239218,52.5161279090032
CAC,Caldercruix,-3.88771190821316,55.8879475461776
CDT,Caldicot,-2.76057390572724,51.5847930591881
CIR,Caledonian Road and Barnsbury,-0.116729249835755,51.5430392840645
CSK,Calstock,-4.20898850028348,50.4978023671618
CDU,Cam and Dursley,-2.35908298700462,51.71762106741
CAM,Camberley,-0.744271720142327,51.3363271281171
CBN,Camborne,-5.2974123155278,50.2104431448962
CBG,Cambridge,0.137456461171047,52.1940653655991
CBH,Cambridge Heath,-0.0572790666047599,51.5319710950389
CMB,Cambridge North,0.158478721722977,52.2244799933152
CBL,Cambuslang,-4.17300936139383,55.8196110785266
CMD,Camden Road,-0.138700901327927,51.541789311709
CMO,Camelon,-3.81760595611437,56.0060960246981
ZCW,Canada Water,-0.0497198367270248,51.4979884652777
CWX,Canary Wharf,-0.019467,51.503578
CNL,Canley,-1.54757487164278,52.3992417616656
CAO,Cannock,-2.02214749992606,52.6861624456421
CST,Cannon Street,-0.0902929804450992,51.5113807653806
CNN,Canonbury,-0.0921909296515918,51.5487306960064
CBE,Canterbury East,1.07596836838028,51.2742643010057
CBW,Canterbury West,1.07530307014886,51.2842658182293
CNY,Cantley,1.51341203393271,52.5787439208642
CPU,Capenhurst,-2.94228526259152,53.2601766897761
CBB,Carbis Bay,-5.46326466277764,50.1970567010486
CDD,Cardenden,-3.26164246018956,56.1412590120684
CDB,Cardiff Bay,-3.16640344566505,51.4671120338694
CDF,Cardiff Central,-3.17930229689385,51.4760288851757
CDQ,Cardiff Queen Street,-3.17018110795731,51.4819650131963
CDO,Cardonald,-4.34069348123436,55.8525736689993
CDR,Cardross,-4.65307437435214,55.9603843832927
CRF,Carfin,-3.9562545230792,55.8073437453988
CAK,Cark and Cartmel,-2.97406410040301,54.1779579416092
CAR,Carlisle,-2.93319211047497,54.8906549298
CTO,Carlton,-1.07865502808069,52.965087366641
CLU,Carluke,-3.84892564535903,55.7312694028257
CMN,Carmarthen,-4.30596190317658,51.8533578808521
CML,Carmyle,-4.15818113045633,55.8343417681725
CNF,Carnforth,-2.77123283370784,54.1296807999724
CAN,Carnoustie,-2.70660077824166,56.5005661034066
CAY,Carntyne,-4.17857314789674,55.8548777008205
CPK,Carpenders Park,-0.385939110192136,51.6283500844943
CAG,Carrbridge,-3.82820361192189,57.2795057695212
CSH,Carshalton,-0.166368536051504,51.3684528774191
CSB,Carshalton Beeches,-0.169797044692897,51.3574095253256
CRS,Carstairs,-3.66847398361363,55.6910505751263
CDY,Cartsdyke,-4.73159192667259,55.9422189788465
CBP,Castle Bar Park,-0.331548940592461,51.5229293420363
CLC,Castle Cary,-2.52279469643867,51.0998172088069
CFD,Castleford,-1.354652736609,53.7240777865092
CAS,Castleton (Manchester),-2.17823419505367,53.5918484863424
CSM,Castleton Moor,-0.946648402304519,54.4671435348016
CAT,Caterham,-0.0783071221606942,51.2821399092314
CTF,Catford,-0.0263165980978829,51.4444050592825
CFB,Catford Bridge,-0.0247911767036132,51.4447390713824
CYS,Cathays,-3.17868388381823,51.4889025348744
CCT,Cathcart,-4.26053705302787,55.8176734833053
CTL,Cattal,-1.32053513613482,53.9974405714928
CAU,Causeland,-4.46644892679679,50.4056959147701
CYB,Cefn-Y-Bedd,-3.03105323734973,53.0988032278231
CTH,Chadwell Heath,0.128958362519305,51.5680368465285
CFH,Chafford Hundred,0.28744692045023,51.4855550575053
CFO,Chalfont and Latimer,-0.560526398177912,51.6681076576697
CHW,Chalkwell,0.670592556917399,51.5387163080302
CFR,Chandlers Ford,-1.38517039014294,50.9836845147777
CEF,Chapel-En-Le-Frith,-1.91876260821786,53.3122322961308
CPN,Chapelton (Devon),-4.02472276399646,51.0165400933197
CLN,Chapeltown (South Yorkshire),-1.46627538451147,53.4623369950109
CWC,Chappel and Wakes Colne,0.758501135970095,51.9259030310448
CHG,Charing (Kent),0.790331124900325,51.2080962778901
CHX,Charing Cross,-0.124802189352862,51.5080258943625
CHC,Charing Cross (Glasgow),-4.2698209416277,55.8646868840175
CBY,Charlbury,-1.48969393048958,51.8724282813146
CTN,Charlton,0.0312574909275387,51.4868115310585
CRT,Chartham,1.01803921286391,51.2572624478548
CSR,Chassen Road,-2.36823319572701,53.4461614853374
CTE,Chatelherault,-4.00467524821846,55.7652234915406
CTM,Chatham,0.521150706594487,51.3803760158194
CHT,Chathill,-1.70637532341525,55.5367340174025
CHU,Cheadle Hulme,-2.1883029825707,53.3759306424827
CHE,Cheam,-0.214167523240628,51.3554775610295
CED,Cheddington,-0.662151871991779,51.8579176369762
CEL,Chelford (Cheshire),-2.28057730967718,53.2703118842523
CHM,Chelmsford,0.468572080657349,51.736370182895
CLD,Chelsfield,0.109069814712519,51.3562540463622
CNM,Cheltenham Spa,-2.09962021886949,51.897399026527
CPW,Chepstow,-2.67190561030381,51.6401819017246
CYT,Cherry Tree,-2.51837919025585,53.7328728448942
CHY,Chertsey,-0.509316626293664,51.387067986648
CHN,Cheshunt,-0.0239597248580568,51.7028745312854
CSN,Chessington North,-0.300699137972596,51.3640398492818
CSS,Chessington South,-0.308157574149904,51.3565491107847
CTR,Chester,-2.879593999182,53.1966981459934
CRD,Chester Road,-1.83247949958833,52.5356474587434
CLS,Chester-Le-Street,-1.57801542177952,54.854595364494
CHD,Chesterfield,-1.42011597140436,53.2382208069527
CSW,Chestfield and Swalecliffe,1.06693052184082,51.360237745381
CNO,Chetnole,-2.57292595204148,50.8663655335093
CCH,Chichester,-0.781748952807999,50.8320529892616
CIL,Chilham,0.975895539359203,51.2446076985827
CHL,Chilworth,-0.524824137256049,51.2152123162868
CHI,Chingford,0.00989703968061354,51.6330849559396
CLY,Chinley,-1.94394095141586,53.3402914179345
CPM,Chippenham,-2.11539415452921,51.4624897217942
CHP,Chipstead,-0.169503225609274,51.3092758788923
CRK,Chirk,-3.06564362624753,52.9330904882563
CIT,Chislehurst,0.0574179687488035,51.4055547408408
CHK,Chiswick,-0.267835206320324,51.4811353508269
CHO,Cholsey,-1.15802300516055,51.5702025135637
CRL,Chorley,-2.62684103630161,53.6525386748143
CLW,Chorleywood,-0.518320062534133,51.6542477676637
CHR,Christchurch,-1.78454614689707,50.7382153631909
CHH,Christs Hospital,-0.363556339669494,51.0506848896206
CTW,Church and Oswaldtwistle,-2.39121218921604,53.7505227746877
CHF,Church Fenton,-1.22758889955301,53.8266010051519
CTT,Church Stretton,-2.80369477152189,52.5374242388884
CIM,Cilmeri,-3.45654171112508,52.1505334866855
CTK,City Thameslink,-0.103589643870664,51.5139346019675
CLT,Clacton-on-Sea,1.15409160775521,51.7939991870545
CLA,Clandon,-0.502766109156909,51.2640043702166
CPY,Clapham (North Yorkshire),-2.4103762733162,54.1053880706421
CLP,Clapham High Street,-0.132521686185382,51.465479417202
CLJ,Clapham Junction,-0.170293416365599,51.4641865965587
CPT,Clapton,-0.0570246574503497,51.5616423238882
CLR,Clarbeston Road,-4.8835490247474,51.8516714049905
CKS,Clarkston,-4.27564475472092,55.7893535486702
CLV,Claverdon,-1.69656001384624,52.277091521558
CLG,Claygate,-0.34824779526903,51.3612128745663
CLE,Cleethorpes,-0.0292209300100191,53.5619045675724
CEA,Cleland,-3.91024482718574,55.804652232152
CLI,Clifton (Manchester),-2.31474664635258,53.522491666707
CFN,Clifton Down,-2.61174122454121,51.4645471476911
CLH,Clitheroe,-2.39433664531423,53.8734683464237
CLK,Clock House,-0.0406570648343016,51.4085847718765
CUW,Clunderwen,-4.73184301881061,51.840545791914
CYK,Clydebank,-4.40441492241242,55.9006964941048
CBC,Coatbridge Central,-4.0318976496868,55.8625102963699
CBS,Coatbridge Sunnyside,-4.02828798060081,55.8668386609231
COA,Coatdyke,-4.00498525207608,55.8643447692187
CSD,Cobham and Stoke D'abernon,-0.389346373427882,51.3180996661306
CSL,Codsall,-2.20176310096144,52.6272899571536
CGN,Cogan,-3.18909039001181,51.4459958120536
COL,Colchester,0.89259805805851,51.90071062168
CET,Colchester Town,0.9047624659822,51.8864527052257
CEH,Coleshill Parkway,-1.70817740730361,52.5165275432713
CLM,Collingham,-0.750393934928215,53.1440857576614
CLL,Collington,0.457861387933257,50.8392865411482
CNE,Colne,-2.18185934114806,53.8547444008362
CWL,Colwall,-2.35695037506955,52.0798705537891
CWB,Colwyn Bay,-3.72541732837559,53.2963632033856
CME,Combe (Oxon),-1.39407333584626,51.8325940324182
COM,Commondale,-0.975148019682156,54.4812740872027
CNG,Congleton,-2.19258027037562,53.1578561862417
CNS,Conisbrough,-1.23433150755602,53.4893094105923
CON,Connel Ferry,-5.38544247761732,56.4523594657108
CBD,Conon Bridge,-4.44040638557,57.5617567994351
CEY,Cononley,-2.01206789209741,53.9175717411782
CNP,Conway Park,-3.02267129068915,53.3933615887328
CNW,Conwy,-3.83052500023981,53.280106240192
COB,Cooden Beach,0.426858738350685,50.8333700419813
COO,Cookham,-0.722079072881563,51.557462203665
CBR,Cooksbridge,-0.0092027514388362,50.9037547738731
COE,Coombe Junction Halt,-4.48185232237372,50.4459252926848
COP,Copplestone,-3.75157247453534,50.8144709700958
CRB,Corbridge,-2.01840032187859,54.9662625268169
COR,Corby,-0.6883354035657,52.4888508478421
CFC,Corfe Castle,-2.05504154167044,50.6383751980767
CKH,Corkerhill,-4.33429351905428,55.8375061471062
CKL,Corkickle,-3.58216474823985,54.5416834476749
CPA,Corpach,-5.12195790866533,56.8428332781627
CRR,Corrour,-4.69060138585505,56.7602193492772
COY,Coryton,-3.23181845626842,51.5204395971461
CSY,Coseley,-2.08577774384501,52.5450842204875
COS,Cosford,-2.30027497544232,52.6448359469502
CSA,Cosham,-1.06732879438891,50.8419241447189
CGM,Cottingham,-0.406433983012819,53.7816479755855
COT,Cottingley,-1.58770821538294,53.7678175756796
CDS,Coulsdon South,-0.137887293899879,51.3158366640872
CDN,Coulsdon Town,-0.134464231082376,51.3220411523246
COV,Coventry,-1.51345977599177,52.4008144382941
CAA,Coventry Arena,-1.49412470531811,52.4477337100526
CWN,Cowden (Kent),0.110032723034128,51.1556353416943
COW,Cowdenbeath,-3.34318635187069,56.1120953327991
CRA,Cradley Heath,-2.09048839521938,52.4696552938033
CGD,Craigendoran,-4.71124492675969,55.9948018624344
CRM,Cramlington,-1.59859511992401,55.0877690033603
CBK,Cranbrook (Devon),-3.42041599201744,50.7500952464281
CRV,Craven Arms,-2.83742232035607,52.4425417003323
CRW,Crawley,-0.186672935434113,51.1122123903253
CRY,Crayford,0.178936075571555,51.4482779041524
CDI,Crediton,-3.64677829535681,50.7833069483759
CES,Cressing (Essex),0.577961040362359,51.8523340604127
CSG,Cressington,-2.91200333610422,53.3587520488864
CWD,Creswell,-1.21639486472377,53.264112781138
CRE,Crewe,-2.4329691730368,53.0896271575516
CKN,Crewkerne,-2.77849644743115,50.8735384311373
CWH,Crews Hill,-0.106887096068869,51.684484296328
CNR,Crianlarich,-4.61843468589525,56.3904817962502
CCC,Criccieth,-4.23751289496718,52.9184156772103
CRI,Cricklewood,-0.21267663535896,51.5584516063089
CFF,Croftfoot,-4.2283256121718,55.8182615046635
CFT,Crofton Park,-0.0365030454664447,51.4551875557246
CMR,Cromer,1.29282430287158,52.930080690008
CMF,Cromford,-1.5491620139343,53.1129329746475
CKT,Crookston,-4.3646760010174,55.842318324364
CRG,Cross Gates,-1.45158048553366,53.8049143949973
CFL,Crossflatts,-1.84488619236594,53.85846717734
COI,Crosshill,-4.25681226287329,55.833290292641
CKY,Crosskeys,-3.12617046220163,51.6209052713811
CMY,Crossmyloof,-4.28431839013047,55.8339508036377
CSO,Croston,-2.7777501372441,53.6675629248262
CRH,Crouch Hill,-0.117148819750171,51.5713003694514
COH,Crowborough,0.188012411090755,51.0463795309772
CWU,Crowhurst,0.501336510177375,50.8885767869689
CWE,Crowle,-0.81735865187716,53.5897328427991
CRN,Crowthorne,-0.819273411974494,51.366727169526
CRO,Croy,-4.0359768431357,55.9556821274184
CYP,Crystal Palace,-0.072609878955063,51.4181074460731
CUD,Cuddington,-2.59930662534034,53.2399218257185
CUF,Cuffley,-0.10978341309134,51.7087202077633
CUM,Culham,-1.23651383491957,51.6537935596445
CUA,Culrain,-4.40427167605383,57.9195183107936
CUB,Cumbernauld,-3.98033519205288,55.9420305501203
CUP,Cupar,-3.00875666756718,56.3169904139478
CUH,Curriehill,-3.3187519699346,55.9005690535793
CUX,Cuxton,0.46170858180193,51.3739241251142
CMH,Cwmbach,-3.41372372042933,51.7019311514616
CWM,Cwmbran,-3.01620383997003,51.656589162343
CYN,Cynghordy,-3.7482113284355,52.0515022362178
DDK,Dagenham Dock,0.146102888033722,51.5260877297843
DSY,Daisy Hill,-2.51586138257427,53.5394553429484
DAG,Dalgety Bay,-3.36772120470528,56.0420983541516
DAL,Dalmally,-4.98355341151622,56.4011953995722
DAK,Dalmarnock,-4.2177095618254,55.8420903351636
DAM,Dalmeny,-3.38162023146767,55.9863224095627
DMR,Dalmuir,-4.42668195442919,55.9119346513924
DLR,Dalreoch,-4.57786407515961,55.9474206110829
DLY,Dalry,-4.71108082709015,55.7062259599313
DLS,Dalston (Cumbria),-2.98885243258072,54.8461793005894
DLJ,Dalston Junction,-0.075137571913028,51.5461140533343
DLK,Dalston Kingsland,-0.0757008270787684,51.548146614991
DLT,Dalton (Cumbria),-3.17900332996882,54.1542402484565
DLW,Dalwhinnie,-4.24619941232607,56.9351747606959
DNY,Danby,-0.910955849347219,54.4661531404483
DCT,Danescourt,-3.2339173943314,51.5005094348701
DZY,Danzey,-1.82087736085094,52.3248139247282
DAR,Darlington,-1.5473239913848,54.5204487638895
DAN,Darnall,-1.4125672166063,53.3845848539264
DSM,Darsham,1.52346982245693,52.2729949292624
DFD,Dartford,0.219247795125754,51.4473686091583
DRT,Darton,-1.53165757467506,53.5883685698073
DWN,Darwen,-2.46494001713562,53.6980382551398
DAT,Datchet,-0.579421910690656,51.4830761133821
DVN,Davenport,-2.15295802817964,53.3909022414929
DWL,Dawlish,-3.46462586729764,50.5808243984253
DWW,Dawlish Warren,-3.44356213176095,50.5987145190544
DEA,Deal,1.39884675211659,51.2230404404227
DEN,Dean (Wilts),-1.63486720856804,51.0424618999667
DGT,Deansgate,-2.25105124318295,53.4741857640751
DGY,Deganwy,-3.83338710286836,53.2947519812566
DHN,Deighton,-1.75189659292689,53.6684837829464
DLM,Delamere,-2.66656070710605,53.2287779256449
DBD,Denby Dale,-1.66321052492305,53.5726320929315
DNM,Denham,-0.497436854492594,51.578836362709
DGC,Denham Golf Club,-0.51778668246761,51.580596815156
DMK,Denmark Hill,-0.0893608845630425,51.4682011118168
DNT,Dent,-2.36359889232972,54.2824108456213
DTN,Denton,-2.13165979003999,53.4568674739172
DEP,Deptford,-0.026270214115525,51.4788463642079
DBY,Derby,-1.46335478012848,52.9165485818253
DBR,Derby Road (Ipswich),1.18264326424955,52.050551175491
DPT,Devonport,-4.17071080992923,50.3785384996853
DEW,Dewsbury,-1.63310655566078,53.6921323675954
DID,Didcot Parkway,-1.24289356096081,51.6109546860743
DIG,Digby and Sowton,-3.47356109719659,50.713993328666
DMH,Dilton Marsh,-2.20791557793657,51.2489890910928
DMG,Dinas (Rhondda),-3.43754173872447,51.6178378851192
DNS,Dinas Powys,-3.21835212130232,51.4316678020878
DGL,Dingle Road,-3.18059109298652,51.4400570944876
DIN,Dingwall,-4.42219986587001,57.59424066943
DND,Dinsdale,-1.46706513570219,54.5147295901116
DTG,Dinting,-1.97029878612479,53.4493321635491
DSL,Disley,-2.04248177088045,53.3581843467523
DIS,Diss,1.12369734579394,52.3736543722193
DOC,Dockyard (Devonport),-4.1758986568326,50.3821742019037
DOD,Dodworth,-1.53169088048623,53.5443255754093
DOL,Dolau,-3.26362091602153,52.29535399865
DLH,Doleham,0.609974730800684,50.9185854757412
DLG,Dolgarrog,-3.82263691779208,53.1863525124092
DWD,Dolwyddelan,-3.88513298649778,53.0520169904365
DON,Doncaster,-1.13984532561563,53.5221497040669
DCH,Dorchester South,-2.43724302167314,50.7092941817416
DCW,Dorchester West,-2.44254130185048,50.7109558301461
DOR,Dore and Totley,-1.51529775653157,53.3276351284421
DKG,Dorking,-0.324250782074152,51.2409286574082
DPD,Dorking (Deepdene),-0.324643185528021,51.2388030074627
DKT,Dorking West,-0.339978560509645,51.2362248191187
DMS,Dormans,-0.00430826569700688,51.1557900843982
DDG,Dorridge,-1.7529004491151,52.3720695979365
DVH,Dove Holes,-1.88975176117671,53.3000293384446
DVP,Dover Priory,1.30529347028767,51.1256965964877
DVC,Dovercourt,1.28061089295205,51.9387345600673
DVY,Dovey Junction,-3.92390297461625,52.5643635350253
DOW,Downham Market,0.365681057551921,52.6041065863828
DRG,Drayton Green,-0.33019425245541,51.516615460614
DYP,Drayton Park,-0.105509008966857,51.5527683445258
DRM,Drem,-2.78604825861367,56.0051254677484
DRF,Driffield,-0.434665009990613,54.0015272627459
DRI,Drigg,-3.44341362306065,54.3769633209494
DTW,Droitwich Spa,-2.15836341611519,52.2682048110456
DRO,Dronfield,-1.46877868224617,53.301369608262
DMC,Drumchapel,-4.36287986166729,55.9048173082117
DFR,Drumfrochar,-4.7747672712099,55.941253590074
DRU,Drumgelloch,-3.94888294626481,55.8673580650901
DMY,Drumry,-4.38547328830428,55.9045972303031
DUD,Duddeston,-1.87139067866748,52.4883642047734
DDP,Dudley Port,-2.04947980373852,52.5246530129006
DFI,Duffield,-1.48597186949023,52.9884014400862
DRN,Duirinish,-5.69131781581449,57.319983293958
DST,Duke Street,-4.2130485563449,55.8584414373244
DUL,Dullingham,0.366663821056869,52.2016485756332
DBC,Dumbarton Central,-4.566921701259,55.9466604798905
DBE,Dumbarton East,-4.55413782204535,55.9422524714118
DUM,Dumbreck,-4.30124003607443,55.8446540909046
DMF,Dumfries,-3.60430398071058,55.072560279693
DMP,Dumpton Park,1.42581850787212,51.3456955683759
DUN,Dunbar,-2.51334649990357,55.9982961094783
DBL,Dunblane,-3.96548684337943,56.1858943626205
DCG,Duncraig,-5.63713233286221,57.3370088020812
DEE,Dundee,-2.97120503713119,56.4564890772048
DFE,Dunfermline City,-3.45252931740364,56.068193893139
DFL,Dunfermline Queen Margaret,-3.42146840922136,56.0805782860466
DKD,Dunkeld and Birnam,-3.57839962708896,56.5570605801315
DNL,Dunlop,-4.53238991249355,55.7118854515322
DNO,Dunrobin Castle,-3.94892170714185,57.9855381206844
DOT,Dunston,-1.64204458851339,54.9500563207881
DNG,Dunton Green,0.170937116397448,51.2964882631909
DHM,Durham,-1.58175210120156,54.7793912284615
DUR,Durrington-On-Sea,-0.411468707281776,50.8175268119417
DYC,Dyce,-2.19232258891137,57.2056516865783
DYF,Dyffryn Ardudwy,-4.10464455585967,52.7888563835265
EAG,Eaglescliffe,-1.34943715428009,54.5294320938467
EAL,Ealing Broadway,-0.301751768794788,51.5148402459065
ERL,Earlestown,-2.63766364961555,53.4511393445328
EAR,Earley,-0.917988243278776,51.4410997593376
EAD,Earlsfield,-0.187714934858848,51.4423355716453
ELD,Earlswood (Surrey),-0.170823068766138,51.2273270225923
EWD,Earlswood (West Midlands),-1.8611697000963,52.3665825052423
ECR,East Croydon,-0.0927797007945513,51.375452247008
EDY,East Didsbury,-2.22199660364924,53.4093102676041
EDW,East Dulwich,-0.0805717011574361,51.4614929058056
EFL,East Farleigh,0.48472893141574,51.2552351625774
EGF,East Garforth,-1.37053696173991,53.791978068865
EGR,East Grinstead,-0.0179000957224751,51.1262718897162
EKL,East Kilbride,-4.18022795719083,55.7660084213155
ELT,East Linton,-2.6579,55.9856
EML,East Malling,0.439280267235468,51.2858073765709
EMD,East Midlands Parkway,-1.26323198480542,52.8625009507858
ETL,East Tilbury,0.412927781783206,51.4848289691417
EWR,East Worthing,-0.354893751833792,50.8216440311297
EBN,Eastbourne,0.281246925814933,50.769375796356
EBK,Eastbrook,-3.20613799233607,51.4376389302109
EST,Easterhouse,-4.10717729312099,55.8597611434519
ERA,Eastham Rake,-2.98113292052366,53.307541541813
ESL,Eastleigh,-1.35008459359062,50.9692506626551
EGN,Eastrington,-0.787630411364113,53.7551607566439
EBD,Ebbsfleet International,0.32092083234529,51.4429709652907
EBV,Ebbw Vale Parkway,-3.19610327359543,51.7571470124788
EBB,Ebbw Vale Town,-3.20257748551815,51.7766914366017
ECC,Eccles (Manchester),-2.33451459617625,53.4853606544673
ECS,Eccles Road,0.9699171605498,52.470880756208
ECL,Eccleston Park,-2.78004194630839,53.4307889509427
EDL,Edale,-1.81662641323107,53.3649724276593
EDN,Eden Park,-0.0263551602667185,51.3900893651293
EBR,Edenbridge (Kent),0.0606462610283875,51.2084338014699
EBT,Edenbridge Town,0.0671730164326339,51.2000809020151
EDG,Edge Hill,-2.94648344109004,53.4026192646978
EDB,Edinburgh,-3.18822824323027,55.9523963079519
EGY,Edinburgh Gateway,-3.32025199802754,55.9409436079933
EDP,Edinburgh Park,-3.30766474611863,55.9275544602882
EDR,Edmonton Green,-0.061112495341183,51.6249271577681
EFF,Effingham Junction,-0.419965418267021,51.2914943131304
EGG,Eggesford,-3.8747459315936,50.8877413451847
EGH,Egham,-0.546512233572854,51.4296459643391
EGT,Egton,-0.761464966771902,54.4374810712663
EPH,Elephant and Castle,-0.098725576447673,51.4940272342536
ELG,Elgin,-3.3112465068439,57.6429130327793
ELP,Ellesmere Port,-2.89642303912049,53.2821939982944
ELE,Elmers End,-0.0495703490218307,51.3984907228231
ESD,Elmstead Woods,0.0442740591944571,51.4171158227735
ESW,Elmswell,0.912589403049404,52.2380370806758
ELR,Elsecar,-1.42742391502071,53.4986597288227
ESM,Elsenham (Essex),0.228070270071964,51.9205434621908
ELS,Elstree and Borehamwood,-0.280081540392811,51.653068116385
ELW,Eltham,0.0524723310748576,51.4556417308034
ELO,Elton and Orston,-0.855512437952713,52.9521360042829
ELY,Ely,0.266827583237292,52.3912277010784
EMP,Emerson Park,0.220113229215512,51.5686403621106
EMS,Emsworth,-0.938429764103964,50.8516141341351
ECP,Energlyn and Churchill Park,-3.22879606589368,51.5832164323409
ENC,Enfield Chase,-0.0906963712828411,51.6532525338014
ENL,Enfield Lock,-0.0285324658222715,51.6709204354558
ENF,Enfield Town,-0.0793276428368423,51.6520239893496
ENT,Entwistle,-2.41454505509583,53.6559786935683
EPS,Epsom,-0.268777680483958,51.3343914612577
EPD,Epsom Downs,-0.2389548499911,51.3236861855796
ERD,Erdington,-1.83950909009634,52.5282854859969
ERI,Eridge,0.201431713057724,51.0889635853662
ERH,Erith,0.175054448859463,51.481668933412
ESH,Esher,-0.353337838372063,51.3798899750361
EKB,Eskbank,-3.08307353739981,55.8818057426337
EXR,Essex Road,-0.0962760595924929,51.5407037990573
ETC,Etchingham,0.442356266553348,51.0105437070136
EUS,Euston,-0.133923635983917,51.5281347606828
EBA,Euxton Balshaw Lane,-2.67202385840804,53.6604819715387
EVE,Evesham,-1.94731370609441,52.0983985539654
EWE,Ewell East,-0.241529638967969,51.3452982319215
EWW,Ewell West,-0.256986619886036,51.3500435722978
EXC,Exeter Central,-3.53327709081269,50.726488241429
EXD,Exeter St David's,-3.54328686333265,50.729278976491
EXT,Exeter St Thomas,-3.53883698274128,50.7171518711947
EXG,Exhibition Centre (Glasgow),-4.28358973053668,55.8615560763509
EXM,Exmouth,-3.41497227480739,50.6216387262065
EXN,Exton,-3.44409684947275,50.6683075102992
EYN,Eynsford,0.204393120925889,51.3627183040984
FRB,Fairbourne,-4.04941426648684,52.6960464630273
FRF,Fairfield,-2.14577519882972,53.471295546374
FRL,Fairlie,-4.85326868616408,55.7519484298977
FRW,Fairwater,-3.23383998994953,51.4939101690858
FCN,Falconwood,0.0793044770026859,51.4591526356848
FKG,Falkirk Grahamston,-3.78504688532692,56.0026177290346
FKK,Falkirk High,-3.79224489222847,55.9918195759738
FOC,Falls Of Cruachan,-5.11247911920548,56.393889401057
FMR,Falmer,-0.0873855066246158,50.8621274713423
FAL,Falmouth Docks,-5.05602948101336,50.1507142799667
FMT,Falmouth Town,-5.06493628645553,50.1483473407862
FRM,Fareham,-1.19203724188042,50.8530338308312
FNB,Farnborough (Main),-0.755725724931643,51.296604884603
FNN,Farnborough North,-0.743026929007782,51.3020444491095
FNC,Farncombe,-0.604548878459314,51.1971531239671
FNH,Farnham,-0.792427196436538,51.2119042298562
FNR,Farningham Road,0.235452055986937,51.4016634815392
FNW,Farnworth,-2.38784997242115,53.5500060922431
ZFD,Farringdon,-0.105204669877814,51.5201655608346
FLD,Fauldhouse,-3.71931936502271,55.8224777300448
FAV,Faversham,0.891044848807162,51.3117105445912
FGT,Faygate,-0.263018670595782,51.095889351236
FAZ,Fazakerley,-2.93672370069026,53.4690878780859
FRN,Fearn,-3.99393654949616,57.7781470089061
FEA,Featherstone,-1.35844424440448,53.6790669195959
FLX,Felixstowe,1.35043499148186,51.9670684291527
FEL,Feltham,-0.409838240699482,51.4478973442697
FST,Fenchurch Street,-0.0788967690632564,51.5116442596509
FNT,Feniton,-3.28541829669429,50.7866805768598
FEN,Fenny Stratford,-0.715997362186537,52.0000683454646
FER,Fernhill,-3.39588328122109,51.6864988102667
FRY,Ferriby,-0.507830473428837,53.7171537976793
FYS,Ferryside,-4.36945917743674,51.7683725332786
FFA,Ffairfach,-3.9928602757854,51.8724792728464
FIL,Filey,-0.293849397915568,54.2098572113142
FIT,Filton Abbey Wood,-2.56243092363725,51.5049414768014
FNY,Finchley Road and Frognal,-0.183140600658463,51.5502644624917
FPK,Finsbury Park,-0.106284978884699,51.5643002449157
FIN,Finstock,-1.4693431033147,51.852782857678
FSB,Fishbourne (Sussex),-0.815084252072113,50.839050994238
FSG,Fishersgate,-0.219423238635621,50.8342331969519
FGW,Fishguard and Goodwick,-4.99483911549407,52.0041205147366
FGH,Fishguard Harbour,-4.98564336378428,52.0115490590944
FSK,Fiskerton,-0.912187610219373,53.060273739149
FZW,Fitzwilliam,-1.37427316573517,53.6325012276325
FWY,Five Ways,-1.91295451976274,52.471096381369
FLE,Fleet,-0.830805697283605,51.290634463196
FLM,Flimby,-3.5207407041013,54.6896909968798
FLN,Flint,-3.13299365746619,53.249527518706
FLT,Flitwick,-0.495257873996204,52.0036411879386
FLI,Flixton,-2.38424675876937,53.443809978016
FLF,Flowery Field,-2.08105317397333,53.4618562073799
FKC,Folkestone Central,1.16948226479176,51.0828838914415
FKW,Folkestone West,1.15390330754187,51.084582896074
FOD,Ford,-0.578410029818067,50.8293930308604
FOG,Forest Gate,0.0243528171904902,51.5494301979489
FOH,Forest Hill,-0.0531571058976325,51.4392784872536
FBY,Formby,-3.07090821445518,53.5534804308434
FOR,Forres,-3.62595038813861,57.6098000095499
FRS,Forsinard,-3.89688108603807,58.3569037821129
FTM,Fort Matilda,-4.79526871008857,55.9590370104671
FTW,Fort William,-5.10614472047831,56.8204504611118
FOK,Four Oaks,-1.82803190041241,52.5797812436274
FOX,Foxfield,-3.216062079698,54.2586714739313
FXN,Foxton,0.0563080918097999,52.1192118267723
FRT,Frant,0.294543047861973,51.1040264976395
FTN,Fratton,-1.07398277385311,50.7963389126627
FRE,Freshfield,-3.07182995042112,53.5660564604323
FFD,Freshford,-2.30100872969826,51.3420317090826
FML,Frimley,-0.746991364293745,51.3118614892824
FRI,Frinton-on-Sea,1.24317054105804,51.8376787265319
FZH,Frizinghall,-1.76900125757173,53.820371215731
FRD,Frodsham,-2.72356723663145,53.2958177869804
FRO,Frome,-2.30999705913937,51.2272725800456
FLW,Fulwell,-0.349467607470903,51.4339339825483
FNV,Furness Vale,-1.98884482439185,53.3487533587757
FZP,Furze Platt,-0.728472828364334,51.5330197603371
GNB,Gainsborough Central,-0.769694112366499,53.3995839522027
GBL,Gainsborough Lea Road,-0.768579598023266,53.3860887154294
GAL,Galashiels,-2.80690093870811,55.6183541299903
GCH,Garelochhead,-4.82571771685403,56.0798700489652
GRF,Garforth,-1.38230970941118,53.796578277864
GGV,Gargrave,-2.10517064216562,53.9784181355008
GAR,Garrowhill,-4.12946139753487,55.855243344443
GRS,Garscadden,-4.36500554078304,55.887699912531
GSD,Garsdale,-2.32635383688291,54.3214321652742
GSN,Garston (Hertfordshire),-0.381741213587884,51.6866146882955
GSW,Garswood,-2.67213496487047,53.4885228462082
GRH,Gartcosh,-4.0794950329411,55.8856655213683
GMG,Garth (Bridgend County),-3.64145068487318,51.5964598445663
GTH,Garth (Powys),-3.52990778325094,52.1332403844721
GVE,Garve,-4.6883963248569,57.6130466094469
GST,Gathurst,-2.69439359809359,53.5594052283238
GTY,Gatley,-2.23123425803736,53.3929065592229
GTW,Gatwick Airport,-0.161041534688098,51.1564892793918
GGJ,Georgemas Junction,-3.45212085822396,58.5136271736984
GER,Gerrards Cross,-0.555275422196685,51.5890222051815
GDP,Gidea Park,0.205964300058707,51.5819019565528
GFN,Giffnock,-4.29301520024745,55.8039950697486
GIG,Giggleswick,-2.30284801630944,54.0618024962135
GBD,Gilberdyke,-0.73224344785332,53.7479630906218
GFF,Gilfach Fargoed,-3.22656863026563,51.6842528100711
GIL,Gillingham (Dorset),-2.27262400569309,51.0340364196905
GLM,Gillingham (Kent),0.549849975746005,51.3865628367939
GSC,Gilshochill,-4.28268544801919,55.897343092772
GIP,Gipsy Hill,-0.0838359193392377,51.4244515495985
GIR,Girvan,-4.84838258218449,55.246318566381
GLS,Glaisdale,-0.793787833434208,54.4393809349983
GCW,Glan Conwy,-3.79772818382623,53.2674259523784
GLC,Glasgow Central,-4.25764427147523,55.8597611220755
GLQ,Glasgow Queen Street,-4.25145684628951,55.8621932785207
GLH,Glasshoughton,-1.34200520311902,53.709043569431
GLZ,Glazebrook,-2.45965774285801,53.4283618664117
GLE,Gleneagles,-3.73116869415328,56.2748538679223
GLF,Glenfinnan,-5.44962144461022,56.872409157321
GLG,Glengarnock,-4.67450285410692,55.7388933086603
GLT,Glenrothes with Thornton,-3.1430158601085,56.1623603600939
GLO,Glossop,-1.94907395313458,53.4444712318736
GCR,Gloucester,-2.23848790484313,51.8655605144798
GLY,Glynde,0.0700772878696409,50.8591702144894
GOB,Gobowen,-3.03717308499659,52.8935180650251
GOD,Godalming,-0.618862331615451,51.186585921505
GDL,Godley,-2.05477260308077,53.4517051977502
GDN,Godstone,-0.0500850012889198,51.2181558172133
GOE,Goldthorpe,-1.31280778570287,53.5341898861407
GOF,Golf Street,-2.71954392312506,56.4977965346615
GOL,Golspie,-3.98721576849113,57.9714691985912
GOM,Gomshall,-0.441852194682862,51.2193975424127
GMY,Goodmayes,0.110807067219603,51.5655770865087
GOO,Goole,-0.874213506853866,53.7049141368498
GTR,Goostrey,-2.32647062196789,53.2225542420521
GDH,Gordon Hill,-0.0946105124636726,51.6633336093912
GBG,Gorebridge,-3.04651587768389,55.8402767826394
GOR,Goring and Streatley,-1.13304945602141,51.5214929030435
GBS,Goring-By-Sea,-0.433083115794079,50.8177202058478
GTO,Gorton,-2.16620966709274,53.4690756762697
GPO,Gospel Oak,-0.150770187040439,51.5553339798316
GRK,Gourock,-4.81665893944356,55.9623249558487
GWN,Gowerton,-4.03593543599281,51.6487303539145
GOX,Goxhill,-0.337120493015181,53.6767016367335
GPK,Grange Park,-0.097358506166751,51.6426058069193
GOS,Grange-Over-Sands,-2.90274777085942,54.1957250961186
GTN,Grangetown (Cardiff),-3.18972442860954,51.4676150468125
GRA,Grantham,-0.642450315227216,52.9064717738698
GRT,Grateley,-1.62077382846579,51.1700600828741
GVH,Gravelly Hill,-1.85259861926897,52.5149974472898
GRV,Gravesend,0.366642983401035,51.441346011536
GRY,Grays,0.321832149858223,51.4762456345275
GTA,Great Ayton,-1.11534529939959,54.4895711302537
GRB,Great Bentley,1.06515337310583,51.8517564056418
GRC,Great Chesterford,0.193521006507941,52.0598088541971
GCT,Great Coates,-0.130230465339355,53.5757525817776
GMV,Great Malvern,-2.31827112619549,52.1092007461802
GMN,Great Missenden,-0.709141096280644,51.7035179982242
GYM,Great Yarmouth,1.72088599357988,52.6121553184077
GNL,Green Lane,-3.01641526158589,53.3832574656958
GNR,Green Road,-3.24557141101891,54.244528737063
GBK,Greenbank,-2.53427100429322,53.2514672060584
GRL,Greenfaulds,-3.99310087977674,55.9352373330107
GNF,Greenfield,-2.01384369909123,53.5388596318608
GFD,Greenford,-0.345837203687885,51.5423301826924
GNH,Greenhithe for Bluewater,0.280290118678753,51.4503695823852
GKC,Greenock Central,-4.75263519677792,55.9453458030869
GKW,Greenock West,-4.76783441808454,55.9473421500839
GNW,Greenwich,-0.013339927226544,51.478133366978
GEA,Gretna Green,-3.06519852950793,55.0010499904167
GMD,Grimsby Docks,-0.0756172875545137,53.5743199678321
GMB,Grimsby Town,-0.0869839520639892,53.5634269192435
GRN,Grindleford,-1.62629684321943,53.3055624866971
GMT,Grosmont,-0.724965652276441,54.4361127385958
GRP,Grove Park,0.0217254815980876,51.4308613774598
GUI,Guide Bridge,-2.11371083446596,53.4746291381174
GLD,Guildford,-0.580425041311442,51.2369694290095
GSY,Guiseley,-1.71508009314658,53.8759354199738
GUN,Gunnersbury,-0.275286434982196,51.491676370171
GSL,Gunnislake,-4.21940651718442,50.5160873764122
GNT,Gunton,1.34911622990825,52.8663427403447
GWE,Gwersyllt,-3.01788857383521,53.0725775216154
GYP,Gypsy Lane,-1.17939215630242,54.5328916495178
HAB,Habrough,-0.269461323075939,53.6060750257549
HCB,Hackbridge,-0.153907557296679,51.3778703391452
HKC,Hackney Central,-0.05605761519121,51.5471033371116
HAC,Hackney Downs,-0.0608190190969979,51.5487558416146
HKW,Hackney Wick,-0.0249198567732405,51.5434088064448
HDM,Haddenham and Thame Parkway,-0.942137163541627,51.7708550752323
HAD,Haddiscoe,1.62300695115001,52.5287829223008
HDF,Hadfield,-1.96532069137142,53.4607461868179
HDW,Hadley Wood,-0.176172558385927,51.6684954399645
HGF,Hag Fold,-2.49482190837221,53.5338545721892
HGG,Haggerston,-0.0756665511018363,51.5387038848962
HAG,Hagley,-2.14641735922659,52.4224915714766
HMY,Hairmyres,-4.22001179037031,55.7619706251142
HAL,Hale (Manchester),-2.34735707887452,53.37871974134
HAS,Halesworth,1.50566724409269,52.3468123386401
HED,Halewood,-2.83013437129598,53.3644822484192
HFX,Halifax,-1.85357493347212,53.7209620544181
HLG,Hall Green,-1.84565106858289,52.4369106872099
HLR,Hall Road,-3.04962755982687,53.4974890539194
HID,Hall-I'-Th'-Wood,-2.41310999594702,53.5974249930564
HAI,Halling,0.444931769399534,51.3524753935197
HWH,Haltwhistle,-2.46356531907909,54.9678514502275
HMT,Ham Street,0.854506282072355,51.0683754548441
HME,Hamble,-1.32916216397532,50.8713750749217
HNC,Hamilton Central,-4.0388857141295,55.7731983159363
HNW,Hamilton West,-4.05480903727555,55.7788645846798
HMM,Hammerton,-1.28409568774822,53.9963302971634
HMD,Hampden Park (Sussex),0.279355781887921,50.7964037646054
HDH,Hampstead Heath,-0.165705423537251,51.5552087499737
HMP,Hampton,-0.372118964249262,51.4159332805517
HMC,Hampton Court,-0.342747730939869,51.4025545250828
HMW,Hampton Wick,-0.312489539027649,51.4145232919642
HIA,Hampton-In-Arden,-1.69993074934828,52.4290342253656
HSD,Hamstead (Birmingham),-1.9289779395104,52.531069889457
HAM,Hamworthy,-2.01935721018784,50.7251934395072
HND,Hanborough,-1.37352555785945,51.8251586675452
HTH,Handforth,-2.21363358276894,53.3464951553287
HAN,Hanwell,-0.338583504755238,51.5118337981012
HPN,Hapton,-2.31691170077186,53.7816162126783
HRL,Harlech,-4.10919139634257,52.8613335573465
HDN,Harlesden,-0.257667575799678,51.5362878581776
HRD,Harling Road,0.909142231833124,52.4536867289203
HLN,Harlington (Bedfordshire),-0.495689942455639,51.9620611815389
HWM,Harlow Mill,0.132307549909169,51.7903635492669
HWN,Harlow Town,0.0951317934868605,51.7810684903414
HRO,Harold Wood,0.233128597584999,51.5927640548293
HPD,Harpenden,-0.351480529620267,51.8146437751381
HRM,Harrietsham,0.672399308718271,51.2448300347931
HGY,Harringay,-0.105136139047123,51.5773567448582
HRY,Harringay Green Lanes,-0.098143778306645,51.5771806696452
HRR,Harrington,-3.565515350674,54.6134885880049
HGT,Harrogate,-1.5376079204885,53.9931776989233
HRW,Harrow and Wealdstone,-0.33457147846876,51.5921675321223
HOH,Harrow-On-The-Hill,-0.337225439219032,51.579184471159
HTF,Hartford (Cheshire),-2.55362979154538,53.2417607399611
HBY,Hartlebury,-2.22111919263343,52.3344969155012
HPL,Hartlepool,-1.20731631414055,54.6867558547517
HTW,Hartwood,-3.83932267619151,55.8114851855931
HPQ,Harwich International,1.25512425866301,51.9472857114404
HWC,Harwich Town,1.28668168375527,51.944141549483
HSL,Haslemere,-0.719162655679867,51.0886476526168
HSK,Hassocks,-0.145953060436374,50.924614335082
HGS,Hastings,0.576741777140467,50.8578932386026
HTE,Hatch End,-0.368601442845824,51.6094158356294
HAT,Hatfield (Herts),-0.215588611336329,51.7638781481545
HFS,Hatfield and Stainforth,-1.02337734015074,53.588715369983
HAP,Hatfield Peverel,0.592123687236409,51.779861704123
HSG,Hathersage,-1.65171878780769,53.3257741591574
HTY,Hattersley,-2.04031078957584,53.4452841948788
HTN,Hatton,-1.67297532730639,52.2952788704628
HAV,Havant,-0.981611527950092,50.8544269692514
HVN,Havenhouse,0.273167403728549,53.114466340323
HVF,Haverfordwest,-4.96020453877437,51.8026384131424
HWD,Hawarden,-3.03208124084354,53.1853618146971
HWB,Hawarden Bridge,-3.03271795160088,53.2180772345693
HKH,Hawkhead,-4.39885190900689,55.8421957168704
HDB,Haydon Bridge,-2.24758798745447,54.9751777312745
HYR,Haydons Road,-0.188814710581538,51.425446553852
HYS,Hayes,0.0105567062139241,51.3763321232389
HAY,Hayes and Harlington,-0.420683554973587,51.5030945965267
HYL,Hayle,-5.41983779753694,50.1855697972892
HYM,Haymarket,-3.21845001667666,55.9458113188022
HHE,Haywards Heath,-0.105077782185401,51.0056801393227
HAZ,Hazel Grove,-2.12201962095665,53.3775448908927
HBL,Headbolt Lane,-2.880204,53.49256
HCN,Headcorn,0.62748171317346,51.1657114899798
HDY,Headingley,-1.59418817772074,53.817974913036
HDL,Headstone Lane,-0.357219842613383,51.6026478723801
HDG,Heald Green,-2.23666763361194,53.3694176683483
HLI,Healing,-0.160629930021024,53.5817975356706
HHL,Heath High Level,-3.18154198686081,51.5164339089399
HLL,Heath Low Level,-3.1819688594128,51.5156652992385
HAF,Heathrow Terminal 4,-0.445463475456846,51.4582666803366
HWV,Heathrow Terminal 5,-0.490589046493648,51.4700516499841
HXX,Heathrow Terminals 2 and 3 (Rail Station Only),-0.454332698147952,51.4714047217375
HTC,Heaton Chapel,-2.17904178739946,53.4255617922317
HBD,Hebden Bridge,-2.00905895282527,53.7375891074878
HEC,Heckington,-0.293944436525981,52.9773165555413
HDE,Hedge End,-1.29450345192803,50.9323199468244
HNF,Hednesford,-2.0017781817904,52.7101128723038
HEI,Heighington,-1.58176523630184,54.5969613101369
HLC,Helensburgh Central,-4.73275902835107,56.0042139816884
HLU,Helensburgh Upper,-4.72980522253607,56.0123690830069
HLD,Hellifield,-2.22784490372142,54.0108643905963
HMS,Helmsdale,-3.65868830516351,58.1174429368089
HSB,Helsby,-2.77120704127457,53.275204192607
HML,Hemel Hempstead,-0.490773823504814,51.7423320859965
HEN,Hendon,-0.238674141977069,51.5800666456672
HNG,Hengoed,-3.22412849176671,51.6474123820799
HNL,Henley-In-Arden,-1.78399122446648,52.2914883891325
HOT,Henley-On-Thames,-0.900212251160192,51.5341798680593
HEL,Hensall,-1.11451874887678,53.6985449964893
HFD,Hereford,-2.70821059283371,52.0611649306944
HNB,Herne Bay,1.11772576971111,51.3645894457159
HNH,Herne Hill,-0.102289173092426,51.4533034982951
HER,Hersham,-0.38995926444742,51.3768109777442
HFE,Hertford East,-0.0729414289478025,51.79903328866
HFN,Hertford North,-0.0917885499098777,51.7988551590785
HES,Hessle,-0.441823201601717,53.717437117902
HSW,Heswall,-3.07370324963052,53.3297203828618
HEV,Hever,0.0950693234447488,51.1814092725629
HEW,Heworth,-1.55576627270973,54.9515690384988
HEX,Hexham,-2.09479483783758,54.9734608263178
HYD,Heyford,-1.29927010488855,51.9191907260692
HHB,Heysham Port,-2.91311479309024,54.0331469127666
HIB,High Brooms,0.277332197021297,51.1494027847788
HST,High Street (Glasgow),-4.2401189349675,55.8595692117893
HWY,High Wycombe,-0.74540990085742,51.6295854937759
HGM,Higham,0.466277692145075,51.4265566387064
HIP,Highams Park,-0.000222270545891415,51.6083484831836
HIG,Highbridge and Burnham,-2.97215391140668,51.2181599423776
HHY,Highbury and Islington,-0.103763719488265,51.546175622276
HTO,Hightown,-3.0570684619595,53.5251090861994
HLB,Hildenborough,0.227589892605984,51.2144840631339
HLF,Hillfoot,-4.3202751655763,55.9200977103331
HLE,Hillington East,-4.35501126249423,55.8541877890155
HLW,Hillington West,-4.37158104524555,55.8560264873289
HIL,Hillside,-3.02471688289934,53.6221093412903
HLS,Hilsea,-1.05879744025532,50.8282766192001
HYW,Hinchley Wood,-0.340524540803229,51.3749971234045
HNK,Hinckley (Leics),-1.37192335886396,52.5349990527016
HIN,Hindley,-2.57550202333731,53.5422392531346
HNA,Hinton Admiral,-1.71412671392757,50.7526411332476
HIT,Hitchin,-0.263480843436498,51.953281279841
HGR,Hither Green,-0.000944252615069939,51.4520235717711
HOC,Hockley,0.659001062344331,51.6035534327015
HBN,Hollingbourne,0.627848162122926,51.2651761643916
HCH,Holmes Chapel,-2.35114010828274,53.1989332075976
HLM,Holmwood,-0.320808988556383,51.1811945265205
HOL,Holton Heath,-2.07784503922292,50.7114102311529
HHD,Holyhead,-4.63100358836588,53.3076896402725
HLY,Holytown,-3.97392977016935,55.8129027286667
HMN,Homerton,-0.0423598361470777,51.5470104295826
HYB,Honeybourne,-1.83374291643708,52.1016016960106
HON,Honiton,-3.18671840695303,50.7965846524932
HOY,Honley,-1.78096550280087,53.6082295344319
HPA,Honor Oak Park,-0.0455054546389545,51.4499873530386
HOK,Hook,-0.961635809058073,51.2799981039743
HOO,Hooton,-2.97700977752604,53.297201990999
HOP,Hope (Derbyshire),-1.72988691169154,53.3461113196644
HPE,Hope (Flintshire),-3.03687630153124,53.1173607183527
HPT,Hopton Heath,-2.91206008319927,52.3914189110453
HRE,Horden,-1.307281,54.763844
HOR,Horley,-0.161053584005946,51.168773865309
HBP,Hornbeam Park,-1.52682241426737,53.9798697891916
HRN,Hornsey,-0.111975065291494,51.5864594318361
HRS,Horsforth,-1.6302285449828,53.8477067224615
HRH,Horsham,-0.319269498076974,51.0660637772242
HSY,Horsley,-0.435408675337,51.2793459823011
HIR,Horton-In-Ribblesdale,-2.30203297896658,54.1493880290593
HWI,Horwich Parkway,-2.53966631191709,53.5781083997492
HSC,Hoscar,-2.80442131383453,53.5977710451049
HGN,Hough Green,-2.77506636802581,53.3723941997311
HOU,Hounslow,-0.362276955867129,51.4619450161616
HOV,Hove,-0.17068739881877,50.835214910836
HXM,Hoveton and Wroxham,1.40799698529215,52.71556725563
HWW,How Wood (Hertfordshire),-0.344670453471928,51.7177410023106
HOW,Howden,-0.860463099241998,53.7647110131002
HOZ,Howwood (Renfrewshire),-4.56305912597922,55.8105698962886
HOX,Hoxton,-0.0756815762246096,51.5315100896576
HYK,Hoylake,-3.17883134374322,53.3902138079966
HBB,Hubberts Bridge,-0.110528766394338,52.9753514502285
HKN,Hucknall,-1.19581158990614,53.0382843549701
HUD,Huddersfield,-1.78469039871001,53.6485035600114
HUL,Hull,-0.345680032310513,53.7441493480669
HUP,Humphrey Park,-2.32753801967235,53.45223041107
HCT,Huncoat,-2.34756164983219,53.7717792534402
HGD,Hungerford,-1.51228713268456,51.4149110329653
HUB,Hunmanby,-0.314556821505257,54.1739246956648
HUN,Huntingdon,-0.192068058935106,52.3286475974216
HNT,Huntly,-2.7757404375089,57.4444911466745
HNX,Hunts Cross,-2.85586141083456,53.3607139619874
HUR,Hurst Green,0.00393932416870493,51.2444289556887
HUT,Hutton Cranswick,-0.433861592432703,53.9558541229671
HUY,Huyton,-2.84298927796266,53.4096869919125
HYC,Hyde Central,-2.08525039026925,53.4518850672931
HYT,Hyde North,-2.08545709626018,53.4648013524443
HKM,Hykeham,-0.600196479468688,53.1950043846362
HYN,Hyndland,-4.31466943406337,55.879759271489
HYH,Hythe (Essex),0.927527516878291,51.8856362943567
IFI,Ifield,-0.214772156073958,51.1156215332042
IFD,Ilford,0.0696794466172625,51.5591157116005
ILN,Ilkeston,-1.29493191720068,52.9795924367692
ILK,Ilkley,-1.82202770033959,53.9247656317533
IMW,Imperial Wharf,-0.182822756588831,51.4749476909384
INC,Ince (Manchester),-2.6115200478397,53.5389145103221
INE,Ince and Elton (Cheshire),-2.81652274892163,53.2766104020697
INT,Ingatestone,0.384246717698089,51.6670407472451
INS,Insch,-2.61711258323671,57.3375011294255
IGD,Invergordon,-4.17484131884681,57.6890234557271
ING,Invergowrie,-3.05739823105792,56.4564765834776
INK,Inverkeithing,-3.39618751116462,56.0346808535737
INP,Inverkip,-4.87258742716067,55.9061104956684
INV,Inverness,-4.22336198854834,57.4798748867189
IVA,Inverness Airport,-4.0552,57.5335
INH,Invershin,-4.3994788851936,57.9248743579926
INR,Inverurie,-2.37355985657482,57.2862694546026
IPS,Ipswich,1.14442549862012,52.0505887523437
IRL,Irlam,-2.433230467447,53.4343122229337
IRV,Irvine,-4.67514661627301,55.6108799076061
ISL,Isleworth,-0.336906804313412,51.4747616687378
ISP,Islip,-1.23818176370228,51.8257535948477
IVR,Iver,-0.50672602998527,51.5085019457845
IVY,Ivybridge,-3.90420495899256,50.3934168621574
JCH,James Cook University Hospital,-1.20856947468958,54.5520308954715
JEQ,Jewellery Quarter,-1.91321297287295,52.4894360890549
JOH,Johnston (Pembs),-4.9963296259132,51.7567530956532
JHN,Johnstone (Renfrewshire),-4.50363835552647,55.834714197314
JOR,Jordanhill,-4.32491887541009,55.8827117027462
KSL,Kearsley (Manchester),-2.37511996920097,53.5441413299414
KSN,Kearsney (Kent),1.27206121379932,51.1493717941085
KEI,Keighley,-1.9016496997336,53.8679643372029
KEH,Keith,-2.95406928289027,57.5509022722452
KEL,Kelvedon,0.702385544812371,51.8406994617688
KVD,Kelvindale,-4.30957358578375,55.8935610353318
KEM,Kemble,-2.02281733230637,51.6769971703594
KMH,Kempston Hardwick,-0.503913835846751,52.0922174814922
KMP,Kempton Park Racecourse,-0.409751333714204,51.4209821129116
KMS,Kemsing,0.247428326868639,51.2971850250612
KML,Kemsley,0.735357658690359,51.3624373325036
KEN,Kendal,-2.73964700542435,54.3320986728737
KNW,Kenilworth,-1.57273839851434,52.3427061725534
KLY,Kenley,-0.100925423171174,51.3247753962072
KNE,Kennett,0.490464403472673,52.2772617551396
KNS,Kennishead,-4.32524717128379,55.8133209635729
KNL,Kensal Green,-0.225087665009101,51.5305388706865
KNR,Kensal Rise,-0.219957116311259,51.5345526617013
KPA,Kensington (Olympia),-0.210364139851331,51.4978974535922
KTH,Kent House,-0.0452474519845536,51.4122135818333
KTN,Kentish Town,-0.140364988576463,51.5504934296569
KTW,Kentish Town West,-0.146655516770481,51.5465463755713
KNT,Kenton,-0.316980931439729,51.5818003557774
KBK,Kents Bank,-2.92522966091916,54.1729054093687
KET,Kettering,-0.731562286498362,52.3935545176702
KWB,Kew Bridge,-0.287107628746807,51.4895116246216
KWG,Kew Gardens,-0.285053592508935,51.477072104418
KEY,Keyham,-4.17960014436056,50.3898850279427
KYN,Keynsham,-2.49562926516013,51.4179793371673
KDB,Kidbrooke,0.0274975396083066,51.462119544138
KID,Kidderminster,-2.23847102061862,52.3844844182319
KDG,Kidsgrove,-2.24481613020019,53.0865673562592
KWL,Kidwelly,-4.31698648595432,51.7343471373279
KBN,Kilburn High Road,-0.19223749902172,51.5372760823348
KLD,Kildale,-1.06814353492044,54.4777577195251
KIL,Kildonan,-3.869106899757,58.1708139378483
KGT,Kilgetty,-4.71515690991487,51.7321124201271
KMK,Kilmarnock,-4.4986858530535,55.6121231268355
KLM,Kilmaurs,-4.53049149111498,55.6372134791223
KPT,Kilpatrick,-4.45341303169582,55.9247068255317
KWN,Kilwinning,-4.71001981266824,55.65595701832
KBC,Kinbrace,-3.94120877219987,58.2583172580373
KGX,King's Cross,-0.122925992140273,51.5308818372572
KGM,Kingham,-1.62878636541463,51.9022505934887
KGH,Kinghorn,-3.1741546348497,56.0693409891845
KGL,Kings Langley,-0.438421949624325,51.7063548987943
KLN,Kings Lynn,0.403446572159957,52.7539216944381
KNN,Kings Norton,-1.93232595881177,52.4142921338481
KGN,Kings Nympton,-3.90541152919904,50.9360787660744
KGP,Kings Park,-4.24651792324437,55.8195481899055
KGS,Kings Sutton,-1.28093067938421,52.021351724736
KGE,Kingsknowe,-3.2649667584969,55.9188170588835
KNG,Kingston,-0.301165787207897,51.4127500326661
KND,Kingswood,-0.211247560940773,51.2947233580129
KIN,Kingussie,-4.05219308955883,57.0777865106214
KIT,Kintbury,-1.44598899781522,51.4025226383962
KTR,Kintore,-2.350244,57.243511
KBX,Kirby Cross,1.21499248023627,51.8413941608247
KKS,Kirk Sandall,-1.07406113904487,53.5638782270739
KIR,Kirkby (Merseyside),-2.90282966945297,53.4861937342547
KSW,Kirkby Stephen,-2.36859691968052,54.454859197973
KKB,Kirkby-in-Ashfield,-1.25305676108097,53.100099197503
KBF,Kirkby-In-Furness,-3.1873762618024,54.2327127968199
KDY,Kirkcaldy,-3.16702889018985,56.1120615348825
KRK,Kirkconnel,-3.99850114549999,55.3883080753917
KKD,Kirkdale,-2.98111730519243,53.4409020953717
KKM,Kirkham and Wesham,-2.88294125388809,53.7869182584274
KKH,Kirkhill,-4.16710560859231,55.8139184572157
KKN,Kirknewton,-3.43251223275665,55.888694738491
KLF,Kirkstall Forge,-1.62247944749869,53.8237207056284
KWD,Kirkwood,-4.04839914533443,55.854193299799
KTL,Kirton Lindsey,-0.593913439822044,53.4848392729907
KIV,Kiveton Bridge,-1.26717948994662,53.340958304616
KVP,Kiveton Park,-1.23984462977862,53.3367153672291
KNA,Knaresborough,-1.47041631503097,54.009024528163
KBW,Knebworth,-0.187288791814045,51.8668534540605
KNI,Knighton,-3.04219621337954,52.3450758871025
KCK,Knockholt,0.130847053987131,51.3457876200943
KNO,Knottingley,-1.25917827738971,53.7065377325563
KNU,Knucklas,-3.09687794796194,52.3598648380342
KNF,Knutsford,-2.37179093175857,53.3017927386283
KYL,Kyle Of Lochalsh,-5.71381439842642,57.2797794370901
LDY,Ladybank,-3.12227569261322,56.2737849038311
LAD,Ladywell,-0.0190406942469275,51.4562426489563
LAI,Laindon,0.424288907848939,51.5675211845757
LRG,Lairg,-4.39988986444872,58.0018345455927
LKE,Lake,-1.16634859044496,50.6464770937633
LAK,Lakenheath,0.535197604816679,52.4473981737658
LAM,Lamphey,-4.87325759551605,51.6671927564176
LNK,Lanark,-3.77329099536818,55.6736117878189
LAN,Lancaster,-2.80745803982251,54.0487328581851
LAC,Lancing,-0.323109264830326,50.827082080019
LAW,Landywood,-2.02072793185577,52.6565417562178
LGB,Langbank,-4.5852756570507,55.9245251560621
LHO,Langho,-2.44865934892391,53.804834121852
LNY,Langley,-0.541756169166767,51.5080614793025
LGG,Langley Green,-2.004964286563,52.4938728263973
LGM,Langley Mill,-1.33124450871379,53.0180608236478
LGS,Langside,-4.27734104732889,55.8211381451405
LGW,Langwathby,-2.6636840914627,54.6943600971583
LAG,Langwith-Whaley Thorns,-1.20934369005986,53.2318405671435
LAP,Lapford,-3.8106396135563,50.8570070932109
LPW,Lapworth,-1.72569141656924,52.3422521317217
LBT,Larbert,-3.83058147522721,56.0227085781322
LAR,Largs,-4.86719878218223,55.7927492986381
LRH,Larkhall,-3.97551250125101,55.7386000297771
LAU,Laurencekirk,-2.46592591150427,56.8363492391231
LWH,Lawrence Hill,-2.56443006698705,51.4580137584908
LAY,Layton (Lancs),-3.02999096667225,53.835271147168
LZB,Lazonby and Kirkoswald,-2.70320902444668,54.7504394529169
LEB,Lea Bridge,-0.0366726102588346,51.5665461591988
LEG,Lea Green,-2.72497791246254,53.4268123083684
LEH,Lea Hall,-1.78601201300865,52.4806441330582
LEA,Leagrave,-0.458502652895297,51.9051580546992
LHM,Lealholm,-0.825715345522462,54.460591596632
LMS,Leamington Spa,-1.53621015936663,52.2844912164467
LSW,Leasowe,-3.09959423179954,53.4080491153648
LHD,Leatherhead,-0.333231977030243,51.2988166518467
LED,Ledbury,-2.4258606364339,52.0452524386556
LEE,Lee,0.0134927898636663,51.4497530810151
LDS,Leeds,-1.54802567392696,53.7956274464893
LEI,Leicester,-1.12527556604253,52.6314253203989
LIH,Leigh (Kent),0.21049491687943,51.1938988021414
LES,Leigh-On-Sea,0.640411251824065,51.5412704804763
LBZ,Leighton Buzzard,-0.677007376141064,51.9163051871475
LEL,Lelant,-5.43654826901766,50.1841314638968
LTS,Lelant Saltings,-5.44092738379503,50.1787837573639
LEN,Lenham,0.707758977213742,51.234483210726
LNZ,Lenzie,-4.15389136965366,55.9213232741314
LEO,Leominster,-2.73034148133234,52.2256846728456
LET,Letchworth Garden City,-0.229264161103862,51.9799626923486
LEU,Leuchars (For St. Andrews),-2.89371351530403,56.3751056580503
LVM,Levenshulme,-2.19266993956898,53.4441647894146
LWS,Lewes,0.0113305158683365,50.870630276246
LEW,Lewisham,-0.0140244236065112,51.4656900573408
LEY,Leyland,-2.68714549713853,53.6988571904321
LEM,Leyton Midland Road,-0.00805063517327931,51.5697236760642
LER,Leytonstone High Road,0.00841639087052511,51.5635527790456
LIC,Lichfield City,-1.82541989750681,52.6801478620555
LTV,Lichfield Trent Valley,-1.80022909556863,52.6868952959191
LID,Lidlington,-0.558928400993178,52.0415356939786
LHS,Limehouse,-0.0398028674833795,51.5125350543271
LCN,Lincoln,-0.539921946842763,53.2260863916889
LFD,Lingfield,-0.0071646303479837,51.1764510669803
LGD,Lingwood,1.48994432206121,52.6220979078982
LIN,Linlithgow,-3.59585283069613,55.9764564743144
LIP,Liphook,-0.800228494413842,51.0713158175337
LSK,Liskeard,-4.46957612946015,50.4468702130789
LIS,Liss,-0.892867192382383,51.0435708255739
LVT,Lisvane and Thornhill,-3.18560235831826,51.5445823857945
LTK,Little Kimble,-0.808452428620359,51.7522314464846
LTT,Little Sutton,-2.94329286779545,53.2855179707172
LTL,Littleborough,-2.09465161657675,53.6429969919746
LIT,Littlehampton,-0.545994825386246,50.8101080667257
LVN,Littlehaven,-0.307980536519452,51.0797500195687
LTP,Littleport,0.316559220116956,52.462378341506
LVC,Liverpool Central,-2.97916860087885,53.4046029237222
LVJ,Liverpool James Street,-2.99195813601943,53.4047670234029
LIV,Liverpool Lime Street,-2.97772651937647,53.4073114186473
LPY,Liverpool South Parkway,-2.8891432523966,53.3577470027976
LST,Liverpool Street,-0.0814260256571922,51.5179894594345
LSN,Livingston North,-3.54435153732544,55.9013876748964
LVG,Livingston South,-3.50156981615429,55.8716969795193
LLA,Llanaber,-4.07717664016112,52.7415079353804
LBR,Llanbedr,-4.11019832879094,52.8208559305805
LLT,Llanbister Road,-3.21342132721638,52.3364286267864
LNB,Llanbradach,-3.23304815296668,51.6032594983474
LLN,Llandaf,-3.2286128720143,51.5084420485035
LDN,Llandanwg,-4.12385762058403,52.836166794295
LLC,Llandecwyn,-4.05703556984347,52.9206897357095
LLL,Llandeilo,-3.9868906676991,51.8853491383229
LLV,Llandovery,-3.80282964304508,51.9953169669631
LLO,Llandrindod,-3.37913857358459,52.2423634801625
LLD,Llandudno,-3.82700196660637,53.3209209897034
LLJ,Llandudno Junction,-3.80910263762492,53.2839483351497
LLI,Llandybie,-4.00364813852215,51.8210402958666
LLE,Llanelli,-4.1613044288107,51.6738717587635
LLF,Llanfairfechan,-3.9832034597963,53.2572920986596
LPG,Llanfairpwll,-4.20921630091034,53.2209501799687
LLG,Llangadog,-3.89314785075551,51.9402176978319
LLM,Llangammarch,-3.55481726360199,52.1143025095964
LLH,Llangennech,-4.07893028981134,51.6911411087195
LGO,Llangynllo,-3.16136974810856,52.3496286034301
LLR,Llanharan,-3.44077892656191,51.5375896600611
LTH,Llanhilleth,-3.13518812842474,51.7003043478287
LLS,Llanishen,-3.18197889233177,51.5327497254607
LWR,Llanrwst,-3.79440182738638,53.1388547420512
LAS,Llansamlet,-3.8846860505603,51.6615072357178
LWM,Llantwit Major,-3.4816178409499,51.4097517458929
LNR,Llanwrda,-3.87167467928183,51.9625913490845
LNW,Llanwrtyd,-3.63216406997936,52.1047151192971
LLW,Llwyngwril,-4.08767986529343,52.666786421808
LLY,Llwynypia,-3.4535140981772,51.6340065052689
LHA,Loch Awe,-5.04197674438731,56.4020223859925
LHE,Loch Eil Outward Bound,-5.191577978281,56.855274245876
LCL,Lochailort,-5.66339666475485,56.8809705350422
LCS,Locheilside,-5.29003796103709,56.8554135535901
LCG,Lochgelly,-3.31294033588271,56.1353333210182
LCC,Lochluichart,-4.8090500523151,57.6217627878108
LHW,Lochwinnoch,-4.6160764250664,55.7871616436763
LOC,Lockerbie,-3.3535334312036,55.1230568805651
LCK,Lockwood,-1.80079094933621,53.6347345225096
LBG,London Bridge,-0.0860920864342872,51.5050174772731
LOF,London Fields,-0.057753374447073,51.5411513732358
LRB,London Road (Brighton),-0.136502344765958,50.8366614163988
LRD,London Road (Guildford),-0.565068976035238,51.2406489245582
LBK,Long Buckby,-1.08646687630919,52.2947163006694
LGE,Long Eaton,-1.28752063442112,52.884988165307
LPR,Long Preston,-2.25559226875526,54.016839303964
LGK,Longbeck,-1.03047296803867,54.589218153324
LOB,Longbridge,-1.98129177075276,52.3964197467346
LNG,Longcross,-0.594570008377892,51.3851721057024
LGF,Longfield,0.300364140906621,51.3961530395142
LND,Longniddry,-2.8883435125611,55.9764873641885
LPT,Longport,-2.21644813555906,53.0418836701973
LGN,Longton,-2.13701083240356,52.9899545614389
LOO,Looe,-4.45616480432356,50.3592309494992
LOT,Lostock,-2.49426644829891,53.5729295419805
LTG,Lostock Gralam,-2.46520332987929,53.2676670182512
LOH,Lostock Hall,-2.68748374608567,53.7242471362983
LOS,Lostwithiel,-4.66596695411252,50.4071837276406
LBO,Loughborough,-1.19592860893181,52.7789547910719
LGJ,Loughborough Junction,-0.102182083841814,51.466296106804
LMR,Low Moor,-1.75340404850532,53.7499281923488
LOW,Lowdham,-0.998419089393871,53.0062848337112
LSY,Lower Sydenham,-0.0333454872146574,51.4248291111835
LWT,Lowestoft,1.74970769013355,52.4744331918507
LUD,Ludlow,-2.7162172322445,52.3712810488116
LUT,Luton,-0.414040220732381,51.8823038393126
LTN,Luton Airport Parkway,-0.395881015266052,51.8724365153574
LUX,Luxulyan,-4.74738511553918,50.3900414353619
LYD,Lydney,-2.53086403423987,51.7141382447785
LYE,Lye (West Midlands),-2.11592950338778,52.4599238991066
LYP,Lymington Pier,-1.52944705491441,50.7583012438964
LYT,Lymington Town,-1.53716213304469,50.7609130065613
LYC,Lympstone Commando,-3.4408403542821,50.6622413631171
LYM,Lympstone Village,-3.43100725046298,50.6482969875504
LTM,Lytham,-2.96404013142963,53.7392843398145
MAC,Macclesfield,-2.12198203578772,53.2593437076928
MCN,Machynlleth,-3.85452825731662,52.5951412329206
MST,Maesteg,-3.65464631854253,51.6099426162926
MEW,Maesteg (Ewenny Road),-3.64899165133724,51.6053462827399
MAG,Maghull,-2.93085339779366,53.5064731023933
MNS,Maghull North,-2.92130383488463,53.5166594059398
MDN,Maiden Newton,-2.56942995841225,50.7800087193215
MAI,Maidenhead,-0.72266053262037,51.5186684511975
MDB,Maidstone Barracks,0.513960134663088,51.277166918507
MDE,Maidstone East,0.521295045225559,51.2778275356103
MDW,Maidstone West,0.515773417339359,51.2704636238475
MAL,Malden Manor,-0.261273984325617,51.3847287183982
MLG,Mallaig,-5.82959836193118,57.0059962124948
MLT,Malton,-0.797222131663321,54.1320756412877
MVL,Malvern Link,-2.31951185541362,52.1254702810477
MIA,Manchester Airport,-2.2729798230138,53.365043565225
MCO,Manchester Oxford Road,-2.24199570444878,53.4740336683728
MAN,Manchester Piccadilly,-2.23091019212988,53.4773633625194
MUF,Manchester United Football Ground,-2.29065314132531,53.4621952308483
MCV,Manchester Victoria,-2.24259973270971,53.4874701876365
MNE,Manea,0.177693657734854,52.4978368635232
MNG,Manningtree,1.04523982068774,51.9490480908359
MNP,Manor Park,0.0463415353236368,51.5524748769622
MNR,Manor Road,-3.17143817708952,53.3947811392292
MRB,Manorbier,-4.79183131735951,51.6601642759115
MAS,Manors,-1.60474111247627,54.972765967882
MFT,Mansfield,-1.19843416202855,53.1421011672879
MSW,Mansfield Woodhouse,-1.20184860036279,53.1635632829505
MCH,March,0.0911977438231965,52.5598920216108
MRN,Marden (Kent),0.493169232841966,51.1751732917054
MAR,Margate,1.37200317607672,51.3854248794367
MHR,Market Harborough,-0.909332272457157,52.4797216067899
MKR,Market Rasen,-0.336898818506559,53.3839116005555
MNC,Markinch,-3.13078740638266,56.2010188190245
MKT,Marks Tey,0.78332735554535,51.8809359573505
MLW,Marlow,-0.766430789500631,51.5709929744456
MPL,Marple,-2.05726356074569,53.4006941877979
MSN,Marsden (Yorks),-1.93075001404666,53.6031876693812
MBT,Marsh Barton,-3.521,50.704
MSK,Marske,-1.01890978275156,54.5874174187477
MGN,Marston Green,-1.75560707926843,52.4671901724747
MTM,Martin Mill,1.34821694134837,51.1706740018418
MAO,Martins Heron,-0.724396685798725,51.4074111353184
MTO,Marton,-1.19848499884042,54.5443434415772
MYH,Maryhill,-4.30074607951477,55.8976359415651
MYL,Maryland,0.0058151274356518,51.5460796500269
MYB,Marylebone,-0.16291090658484,51.5225224462334
MRY,Maryport,-3.49407505166417,54.7113233780618
MAT,Matlock,-1.55891090288035,53.1384084903689
MTB,Matlock Bath,-1.55675902935919,53.1223550639504
MAU,Mauldeth Road,-2.20925151178998,53.4330630367744
MAX,Maxwell Park,-4.28869285870876,55.8377341195868
MAY,Maybole,-4.68528992636832,55.3547421526105
MZH,Maze Hill,0.0029141239970161,51.4826229447814
MHS,Meadowhall,-1.41285161717926,53.4174668842077
MEL,Meldreth,0.00894120955514212,52.0907150422717
MKM,Melksham,-2.14449725059521,51.3798247261646
MES,Melton (Suffolk),1.33823651804569,52.1044351253859
MMO,Melton Mowbray,-0.885869328388072,52.761030728011
MEN,Menheniot,-4.40922408393021,50.4262341939632
MNN,Menston,-1.73551023785352,53.8923400556363
MEO,Meols,-3.15426972840823,53.3994429101248
MEC,Meols Cop,-2.97580426118934,53.6462749764885
MEP,Meopham,0.356951489465764,51.3864215266903
MRW,Meridian Water,-0.050956,51.608313
MEY,Merryton,-3.97825436884013,55.7487112251651
MHM,Merstham,-0.150225683150478,51.2641527454047
MER,Merthyr Tydfil,-3.3772510196222,51.744625525629
MEV,Merthyr Vale,-3.33657620028806,51.6866491708375
MGM,Metheringham,-0.391453147170413,53.1388788760626
MCE,MetroCentre,-1.66562606902726,54.9587502620908
MEX,Mexborough,-1.28856144106165,53.4909927686768
MIC,Micheldever,-1.26067780351667,51.1823935174679
MIK,Micklefield,-1.32679320898116,53.7888373334772
MBR,Middlesbrough,-1.2347173318742,54.5791063651263
MDL,Middlewood,-2.08335333103346,53.3599605025725
MDG,Midgham,-1.17771126832106,51.3959751257513
MLF,Milford (Surrey),-0.636948382462774,51.1633186006585
MFH,Milford Haven,-5.04096986911261,51.714979549105
MLH,Mill Hill (Lancs),-2.50173568091878,53.7354603724916
MIL,Mill Hill Broadway,-0.249239721503207,51.6130914993055
MLB,Millbrook (Bedfordshire),-0.532703119175023,52.0538358545238
MBK,Millbrook (Hants),-1.4338426532312,50.9114966599587
MIN,Milliken Park,-4.53335906784924,55.8251172859306
MLM,Millom,-3.27108460663279,54.2108269831584
MIH,Mills Hill (Manchester),-2.17151304787984,53.5513120524505
MLN,Milngavie,-4.31458139298174,55.9413704602766
MKC,Milton Keynes Central,-0.774146106746081,52.0342878492872
MFF,Minffordd,-4.0849663493798,52.9261366952669
MSR,Minster,1.31721649527708,51.3291703683313
MIR,Mirfield,-1.6925452161393,53.6714021397812
MIS,Mistley,1.08139999800216,51.9436275001312
MTC,Mitcham Eastfields,-0.154646036147362,51.4077375961747
MIJ,Mitcham Junction,-0.157756646994223,51.3929486808547
MOB,Mobberley,-2.33366574844739,53.3291413406719
MON,Monifieth,-2.81824791549888,56.4801153181425
MRS,Monks Risborough,-0.829333737720603,51.7357620020828
MTP,Montpelier,-2.58868595834309,51.4683517364729
MTS,Montrose,-2.47207451650721,56.7128006944104
MRF,Moorfields,-2.9891882773849,53.4085653546297
MOG,Moorgate,-0.0889434111054453,51.5184898840489
MSD,Moorside,-2.35179973506312,53.5162762391321
MRP,Moorthorpe,-1.30494712963021,53.5949966151498
MRR,Morar,-5.82191950899207,56.9697262287217
MRD,Morchard Road,-3.77636658715714,50.8319028904102
MDS,Morden South,-0.199460998446769,51.3961149314428
MCM,Morecambe,-2.86930849625208,54.0703219743606
MTN,Moreton (Dorset),-2.31344997614725,50.7010328069398
MRT,Moreton (Merseyside),-3.1135025055345,53.4072100882901
MIM,Moreton-In-Marsh,-1.70038054918921,51.9922817002363
MFA,Morfa Mawddach,-4.03217039102967,52.7071327571147
MLY,Morley,-1.59097688458195,53.7499245094853
MPT,Morpeth,-1.6830746754367,55.1623773207923
MOR,Mortimer,-1.03551007738749,51.3720786572013
MTL,Mortlake,-0.267105651599544,51.4680855607294
MSS,Moses Gate,-2.40118838311289,53.5559843086055
MOS,Moss Side,-2.94293499720734,53.76497928934
MSL,Mossley (Manchester),-2.04128216208238,53.5149801942319
MSH,Mossley Hill,-2.91544349439259,53.379040699388
MPK,Mosspark,-4.34829357131854,55.8408346863159
MSO,Moston,-2.17102311232462,53.5234218723514
MTH,Motherwell,-3.99432618318833,55.7916788802199
MOT,Motspur Park,-0.239530774928073,51.3951950985035
MTG,Mottingham,0.0500539450672822,51.4402163962549
DBG,Mottisfont and Dunbridge,-1.54708493792647,51.0339268531596
MLD,Mouldsworth,-2.73222485320554,53.2318084163039
MCB,Moulsecoomb,-0.118841814627873,50.8467204578911
MFL,Mount Florida,-4.26113251761196,55.8265601758484
MTV,Mount Vernon,-4.13367010557423,55.8402067277691
MTA,Mountain Ash,-3.37634184890973,51.6813343609573
MOO,Muir Of Ord,-4.46023404561932,57.5178529617987
MUI,Muirend,-4.2743927200496,55.8094639581543
MUB,Musselburgh,-3.07320131917733,55.9335941789831
MYT,Mytholmroyd,-1.98142599464334,53.7290044368074
NFN,Nafferton,-0.386076076979419,54.0112216540656
NLS,Nailsea and Backwell,-2.75063426416765,51.4194110009406
NRN,Nairn,-3.87200086214558,57.5802500836488
NAN,Nantwich,-2.51895955384612,53.0635742742812
NAR,Narberth,-4.72717631331422,51.799374596656
NBR,Narborough,-1.20334617542751,52.5712934494761
NVR,Navigation Road,-2.34341745191281,53.395378070314
NTH,Neath,-3.80721975586113,51.6623654682398
NMT,Needham Market,1.05525970971362,52.152586140744
NEI,Neilston,-4.42695331466825,55.7830431077224
NEL,Nelson,-2.21375958558995,53.8350082943751
NES,Neston,-3.06307664256962,53.2918544363605
NET,Netherfield,-1.07984974022789,52.9614109099866
NRT,Nethertown,-3.56583835781772,54.4564201194086
NTL,Netley,-1.34190294545181,50.8749097287933
NBA,New Barnet,-0.172997160450811,51.6485731660254
NBC,New Beckenham,-0.0352735090237037,51.4167679708409
NBN,New Brighton,-3.04796518960743,53.4374039145644
NCE,New Clee,-0.0608126695275023,53.5743775024772
NWX,New Cross,-0.0497198367270248,51.4979884652777
NXG,New Cross Gate,-0.0404133850016496,51.475126837633
NCK,New Cumnock,-4.18434175069713,55.4027446206464
NEH,New Eltham,0.0705331656912479,51.4380578032025
NHL,New Holland,-0.360213443496927,53.7019202237246
NHE,New Hythe,0.45492948992057,51.3130004729484
NLN,New Lane,-2.86771644267761,53.6116655047717
NEM,New Malden,-0.255939630927583,51.4040733290905
NMC,New Mills Central,-2.00567137628513,53.3648433687958
NMN,New Mills Newtown,-2.00852550390015,53.3596298013473
NWM,New Milton,-1.6578128311963,50.7557538693892
NPD,New Pudsey,-1.68079248783834,53.804484968986
NSG,New Southgate,-0.143037911789797,51.6141120964393
NCT,Newark Castle,-0.813160250246261,53.0800032334838
NNG,Newark North Gate,-0.7998546058664,53.0817576073233
NBE,Newbridge,-3.1428856912689,51.6658188832334
NBY,Newbury,-1.32286122644267,51.3976498955828
NRC,Newbury Racecourse,-1.30779919001623,51.3984610888363
NCL,Newcastle,-1.61727998629735,54.9684027908736
NCO,Newcourt,-3.47278485631385,50.7050458392919
NEW,Newcraighall,-3.09084391779078,55.9331247324994
NVH,Newhaven Harbour,0.0549929677578207,50.7897898808664
NVN,Newhaven Town,0.0549454837075529,50.794854179482
NGT,Newington,0.668570477587334,51.3533388601255
NMK,Newmarket,0.406208240580774,52.2379418265099
NWE,Newport (Essex),0.215140472977323,51.9798675277993
NWP,Newport (South Wales),-3.00054396970323,51.5887921914505
NQY,Newquay,-5.07565565807647,50.4151017609893
NSD,Newstead,-1.22178775896809,53.0699826213029
NTN,Newton (Lanark),-4.13305568664905,55.818782856148
NTA,Newton Abbot,-3.59916751160258,50.5295897225631
NAY,Newton Aycliffe,-1.58964534594234,54.613703754071
NWN,Newton For Hyde,-2.06714263889228,53.4563818755973
NTC,Newton St Cyres,-3.58938968544777,50.7789320949177
NLW,Newton-Le-Willows,-2.61359847042368,53.4530631011584
NOA,Newton-On-Ayr,-4.62582745135284,55.4740590327814
NEG,Newtongrange,-3.06936631697961,55.8670007608391
NWR,Newtonmore,-4.11910976027122,57.0591504831511
NWT,Newtown (Powys),-3.31139233549228,52.5123175601502
NNP,Ninian Park,-3.20169434082429,51.4766198002861
NIT,Nitshill,-4.35995970405036,55.8119404711256
NBT,Norbiton,-0.284025031131747,51.4123564143608
NRB,Norbury,-0.121926123971817,51.4114442897327
NSB,Normans Bay,0.389461561474006,50.826101502338
NOR,Normanton,-1.42340145992249,53.7005196031973
NBW,North Berwick,-2.73074202917125,56.0570389404918
NCM,North Camp,-0.73119873501638,51.2757943500774
NDL,North Dulwich,-0.0879175541773266,51.4545087682377
NFA,North Fambridge,0.681658771870616,51.648580908062
NLR,North Llanrwst,-3.80272815675675,53.1438263851707
NQU,North Queensferry,-3.39458521497314,56.0125044467312
NRD,North Road (Darlington),-1.55394983128153,54.5362005329395
NSH,North Sheen,-0.287875891566258,51.4651534541947
NWA,North Walsham,1.38445421171303,52.8168820237011
NWB,North Wembley,-0.303984121627859,51.5625946401904
NTR,Northallerton,-1.44127314007586,54.3330727384979
NMP,Northampton,-0.906653121268202,52.2375002452626
NFD,Northfield,-1.96585167073046,52.4081933053091
NFL,Northfleet,0.324333466190259,51.445844101158
NLT,Northolt Park,-0.359465943698781,51.5575385653207
NUM,Northumberland Park,-0.0539319255879298,51.6019674527146
NWI,Northwich,-2.49691732337223,53.2614536014413
NRW,Norwich,1.30681996029555,52.62714971818
NWD,Norwood Junction,-0.075221581568506,51.3970174639507
NOT,Nottingham,-1.14638184532088,52.9470746023914
NUN,Nuneaton,-1.46387533179059,52.5263712846171
NHD,Nunhead,-0.0522726935484751,51.4668263948128
NNT,Nunthorpe,-1.16944891963805,54.5278808512699
NUT,Nutbourne,-0.882945586708176,50.8460692684057
NUF,Nutfield,-0.132531324481074,51.226812076762
OKN,Oakengates,-2.45019466157131,52.6934001762611
OKM,Oakham,-0.734171214911971,52.6722143545154
OKL,Oakleigh Park,-0.166209408922274,51.6376765886395
OBN,Oban,-5.47393316220534,56.4124934081553
OCK,Ockendon,0.290469073489715,51.5219899265372
OLY,Ockley,-0.336013709975087,51.1515107928818
OKE,Okehampton,-3.99621576261264,50.7323852793123
OHL,Old Hill,-2.05619091391091,52.4709351726985
ORN,Old Roan,-2.95107199195931,53.4868981936583
OLD,Old Street,-0.0885351693651762,51.5258301482422
OLF,Oldfield Park,-2.38050826671122,51.3792329552875
OLT,Olton,-1.80430957786284,52.4385126897275
ORE,Ore,0.59156785910555,50.8669458399245
OMS,Ormskirk,-2.88119341582488,53.5692757485166
ORP,Orpington,0.0890904588065268,51.3732941250424
ORR,Orrell,-2.7088377149419,53.5303144801386
OPK,Orrell Park,-2.9633159550171,53.4619011114486
OTF,Otford,0.196778713940581,51.3131561851829
OUN,Oulton Broad North,1.71571051949987,52.4777560161288
OUS,Oulton Broad South,1.70765833077603,52.4695988118552
OUT,Outwood,-1.51040040992778,53.7152877851752
OVE,Overpool,-2.92406107885251,53.2840505150009
OVR,Overton,-1.25926770004615,51.2542941004229
OXN,Oxenholme Lake District,-2.72187052772014,54.3049295788778
OXF,Oxford,-1.27015352970746,51.7534963394494
OXP,Oxford Parkway,-1.27448599244543,51.8040716954617
OXS,Oxshott,-0.362419321583157,51.336394704913
OXT,Oxted,-0.00483358081975837,51.2579065254173
PAD,Paddington,-0.176173978727238,51.5159940881549
PDW,Paddock Wood,0.389148594100852,51.1822644402712
PDG,Padgate,-2.55681102172577,53.4057914023798
PGN,Paignton,-3.56487641233621,50.4347227878179
PCN,Paisley Canal,-4.42411844369982,55.8400824540097
PYG,Paisley Gilmour Street,-4.42450743894982,55.8473549668126
PYJ,Paisley St James,-4.44244401259001,55.8521231802499
PAL,Palmers Green,-0.110436642529408,51.6183127935019
PAN,Pangbourne,-1.09047043399136,51.4854015053474
PNL,Pannal,-1.53346712258257,53.9583250719765
PTF,Pantyffynnon,-3.99743030670748,51.7788823752264
PAR,Par,-4.70467654869626,50.355332569151
PBL,Parbold,-2.77074867956054,53.5907569450647
PKT,Park Street,-0.340276569750496,51.7254570878599
PKS,Parkstone (Dorset),-1.94795671341578,50.7229802745283
PSN,Parson Street,-2.60774195126216,51.433321945258
PTK,Partick,-4.30880730961354,55.8698932075843
PRN,Parton,-3.58080095542418,54.5703727905232
PWY,Patchway,-2.56268966135098,51.5259354748974
PAT,Patricroft,-2.35824496188684,53.4847795257707
PTT,Patterton,-4.33529940797433,55.7906161960171
PEA,Peartree,-1.47321401914229,52.8969957850471
PMR,Peckham Rye,-0.0694144132610272,51.4700325597071
PEG,Pegswood,-1.64416595983567,55.1781302235352
PEM,Pemberton,-2.67035432808999,53.5304105968003
PBY,Pembrey and Burry Port,-4.24784211296353,51.6835327613195
PMB,Pembroke,-4.90602433683314,51.6729514924441
PMD,Pembroke Dock,-4.93804887484917,51.6939194282496
PNY,Pen-Y-Bont (Mid Wales),-3.32193165048597,52.2739467480951
PNA,Penally,-4.7220562646247,51.6589254126835
PEN,Penarth,-3.17444130637006,51.4358926417033
PCD,Pencoed,-3.50047968057036,51.5246119297523
PGM,Pengam,-3.23010035583671,51.6704586250478
PNE,Penge East,-0.0542205360561731,51.4193323033096
PNW,Penge West,-0.0608399092263933,51.417553555409
PHG,Penhelig,-4.03502609738586,52.5456913157759
PNS,Penistone,-1.62278088080644,53.525547143693
PKG,Penkridge,-2.1192938600636,52.723501250305
PMW,Penmaenmawr,-3.92351167431784,53.2704701066209
PNM,Penmere,-5.08319400262585,50.1503375027632
PER,Penrhiwceiber,-3.35994430931558,51.6699259842323
PRH,Penrhyndeudraeth,-4.06456339411717,52.9288307183847
PNR,Penrith (North Lakes),-2.75888111512636,54.6618080251458
PYN,Penryn (Cornwall),-5.11160882476917,50.1707193828341
PES,Pensarn (Gwynedd),-4.11216063395235,52.8307111960865
PHR,Penshurst,0.173472176004671,51.1973356107996
PTB,Pentre-Bach,-3.36232118454029,51.7250178369448
PNC,Penychain,-4.33872254394208,52.9028886750382
PNF,Penyffordd,-3.05483874169034,53.1430923532879
PNZ,Penzance,-5.53256692663293,50.1216812292068
PRW,Perranwell,-5.1120706428852,50.2165859736893
PRY,Perry Barr,-1.90196025955175,52.5164869842704
PSH,Pershore,-2.07153704168932,52.1305566253766
PTH,Perth,-3.43969855014665,56.3920979805166
PBO,Peterborough,-0.249836976699539,52.5749740639353
PTR,Petersfield,-0.94113679078902,51.006726146585
PET,Petts Wood,0.074480842647604,51.3886169623745
PEV,Pevensey and Westham,0.324807397108513,50.8157969498256
PEB,Pevensey Bay,0.342906558893707,50.8174583978737
PEW,Pewsey,-1.77067540187194,51.3421942968163
PIL,Pilning,-2.62711203153276,51.5566295163187
PIN,Pinhoe,-3.46933358990446,50.7377888650725
PIT,Pitlochry,-3.73557101891491,56.7025053721729
PSE,Pitsea,0.506293019474988,51.560356682934
PLS,Pleasington,-2.54412394706983,53.7309610718647
PLK,Plockton,-5.66600058185849,57.3335718443317
PLC,Pluckley,0.747395830044621,51.1564700555766
PLM,Plumley,-2.41966207150972,53.2746765075641
PMP,Plumpton,-0.0601811124314792,50.9286615707799
PLU,Plumstead,0.0842564363456201,51.4897931921057
PLY,Plymouth,-4.14332139616707,50.377832405532
POK,Pokesdown,-1.82510225963574,50.7310890898849
PLG,Polegate,0.24514003551475,50.8212432167366
PSW,Polesworth,-1.61054026735013,52.6258331365433
PWE,Pollokshaws East,-4.28688614230701,55.8246458842573
PWW,Pollokshaws West,-4.30160657460787,55.8238319602464
PLE,Pollokshields East,-4.26860382397255,55.8410722179036
PLW,Pollokshields West,-4.27575439534429,55.8377046003095
PMT,Polmont,-3.71497368266614,55.9847413388765
POL,Polsloe Bridge,-3.50194782840065,50.7312848182635
PON,Ponders End,-0.0350804681099429,51.6422543953829
PYP,Pont-y-Pant,-3.86272139763526,53.065136457518
PTD,Pontarddulais,-4.04554424487839,51.7176257292333
PFR,Pontefract Baghill,-1.30335291393473,53.6918821345437
PFM,Pontefract Monkhill,-1.30369006794749,53.6989848573989
POT,Pontefract Tanshelf,-1.31891488844414,53.6941288105239
PLT,Pontlottyn,-3.27895644932375,51.746635592368
PYC,Pontyclun,-3.39291844991871,51.5237715119021
PPL,Pontypool and New Inn,-3.01423680448712,51.6979671334817
PPD,Pontypridd,-3.34137532210224,51.5993739308176
POO,Poole,-1.98331774283342,50.7194295758933
POP,Poppleton,-1.14859672341854,53.9758981002286
PTG,Port Glasgow,-4.68982689750153,55.9335207454089
PSL,Port Sunlight,-2.99802962626104,53.3492543995092
PTA,Port Talbot Parkway,-3.78131504944784,51.5917224717491
PTC,Portchester,-1.12423998363414,50.848749899166
POR,Porth,-3.40718895754128,51.6125407752642
PTM,Porthmadog,-4.13444726497883,52.9309221040318
PLN,Portlethen,-2.1266115677869,57.0613777495036
PLD,Portslade,-0.205336498361772,50.8356811235444
PMS,Portsmouth and Southsea,-1.09091112154649,50.7984954273704
PMA,Portsmouth Arms,-3.95058031747702,50.9570068333947
PMH,Portsmouth Harbour,-1.10784029347727,50.7969624524404
PRI,Portway Park and Ride,-2.688056,51.488611
PPK,Possilpark and Parkhouse,-4.25851365103835,55.8901496935346
PBR,Potters Bar,-0.192605538606053,51.6970659903403
PFY,Poulton-Le-Fylde,-2.99062491763536,53.8484289756684
PYT,Poynton,-2.13441039328915,53.3503859491169
PRS,Prees,-2.68966312303049,52.8993074288412
PSC,Prescot,-2.7991716524592,53.4235613546352
PRT,Prestatyn,-3.40713237265694,53.336501459004
PRB,Prestbury,-2.14548277245262,53.2933847073959
PRE,Preston (Lancs),-2.70812828060979,53.7568621014464
PRP,Preston Park,-0.155167648736818,50.8459424994462
PST,Prestonpans,-2.97476834169351,55.9531016542727
PRA,Prestwick International Airport,-4.61417120854713,55.5090412652109
PTW,Prestwick Town,-4.61515745805092,55.5017033474374
PTL,Priesthill and Darnley,-4.34289565651502,55.8121769915328
PRR,Princes Risborough,-0.84388111738234,51.7178599956649
PRL,Prittlewell,0.710675997585383,51.550684437541
PRU,Prudhoe,-1.86486576638037,54.9658294850558
PUL,Pulborough,-0.516557808412207,50.9573580197334
PFL,Purfleet,0.23676692162375,51.4810112825886
PUR,Purley,-0.114035454651551,51.337577183847
PUO,Purley Oaks,-0.0988561521096197,51.347043959275
PUT,Putney,-0.216474614715793,51.461301278925
PWL,Pwllheli,-4.41669856964055,52.8878398767782
PYE,Pye Corner,-3.03754596731614,51.5795421876312
PYL,Pyle,-3.69805296454196,51.5257396456246
QYD,Quakers Yard,-3.32280104210606,51.660729052218
QBR,Queenborough,0.749666053006154,51.4156339931359
QPK,Queens Park (Glasgow),-4.26675094492746,55.8353094377444
QPW,Queens Park (London),-0.204984856060152,51.5339648040676
QRP,Queens Road Peckham,-0.0573135732563413,51.4735646105246
QRB,Queenstown Road (Battersea),-0.146678219364971,51.4749664107747
QUI,Quintrell Downs,-5.02849271345309,50.4040612403693
RDF,Radcliffe (Nottinghamshire),-1.03732804918702,52.9487854020447
RDT,Radlett,-0.317243779551128,51.6851868069741
RAD,Radley,-1.24048213625403,51.686206248318
RDR,Radyr,-3.24835339838755,51.516326324296
RNF,Rainford,-2.78946948914234,53.5171083438811
RNM,Rainham (Essex),0.190633422793448,51.5167210980052
RAI,Rainham (Kent),0.611337064141952,51.3663032145112
RNH,Rainhill,-2.76640066434314,53.4171244722439
RAM,Ramsgate,1.40646689060447,51.3408004243316
RGW,Ramsgreave and Wilpshire,-2.47813559440121,53.7797783616959
RAN,Rannoch,-4.5768707453178,56.6860514460921
RAU,Rauceby,-0.456606207572961,52.9852036369815
RAV,Ravenglass for Eskdale,-3.40881431828458,54.3557110804886
RVB,Ravensbourne,-0.00755682700384739,51.4141866610802
RVN,Ravensthorpe,-1.6555790165446,53.6755260087277
RWC,Rawcliffe,-0.960863228569253,53.6890412578983
RLG,Rayleigh,0.599983350256744,51.5892905769875
RAY,Raynes Park,-0.230150853617281,51.4091721104022
RDG,Reading,-0.97186328533933,51.4587860306228
RGP,Reading Green Park,-1.001756,51.426555
RDW,Reading West,-0.990129384610207,51.4555008944108
REC,Rectory Road,-0.0682669590232498,51.5585007388183
RDB,Redbridge,-1.4701599169294,50.919940137584
RBS,Redcar British Steel,-1.1126612810911,54.6098897632701
RCC,Redcar Central,-1.07086767445081,54.6162267353375
RCE,Redcar East,-1.05229228407457,54.6092525572023
RDN,Reddish North,-2.15625524184499,53.4494133375608
RDS,Reddish South,-2.1587646019265,53.43592727504
RDC,Redditch,-1.94524983887965,52.3063272133782
RDH,Redhill,-0.165899957799594,51.2401996838507
RDA,Redland,-2.59912380546937,51.468388782625
RED,Redruth,-5.2259168011669,50.2332601047211
RHM,Reedham (London),-0.123415833736917,51.3311181847608
REE,Reedham (Norfolk),1.55965109722571,52.5644994467202
REI,Reigate,-0.203825137397189,51.2419570083177
RTN,Renton,-4.58612684660208,55.9704368103573
RSN,Reston,-2.1972,55.8506
RET,Retford,-0.947884081349436,53.3151538521764
RHI,Rhiwbina,-3.21396568817657,51.5211832228293
RIA,Rhoose Cardiff International Airport,-3.34938449549847,51.3870701590594
RHO,Rhosneigr,-4.50664297984056,53.2348432559319
RHL,Rhyl,-3.48910592841457,53.3184263289566
RHY,Rhymney,-3.28929893340181,51.7588410735942
RHD,Ribblehead,-2.3608561089944,54.2058469509555
RIL,Rice Lane,-2.96231887163521,53.4577742831356
RMD,Richmond,-0.301558426487536,51.4630594123873
RIC,Rickmansworth,-0.473282526469406,51.6402458514435
RDD,Riddlesdown,-0.0993867058876995,51.33248424611
RID,Ridgmont,-0.594557032610946,52.0264021347708
RDM,Riding Mill,-1.97155522423832,54.948737495131
RCA,Risca and Pontymister,-3.09220981979183,51.6058504035779
RIS,Rishton,-2.42015800658609,53.7638170459677
RBR,Robertsbridge,0.468782436691585,50.9849308417
RRN,Robroyston,-4.17136688965214,55.8877996017553
ROB,Roby,-2.85593399184656,53.4100443457934
RCD,Rochdale,-2.15352442179759,53.61030869096
ROC,Roche,-4.83019887919514,50.4185483158575
RTR,Rochester,0.510281343698929,51.3855469549795
RFD,Rochford,0.702303211126649,51.5817258296323
RFY,Rock Ferry,-3.01082677270814,53.3726529630341
ROG,Rogart,-4.15818588642031,57.9887173837053
ROR,Rogerstone,-3.06661300859181,51.5956194917005
ROL,Rolleston,-0.899674798547528,53.0652827152302
RMB,Roman Bridge,-3.92164878440934,53.0444200180364
RMF,Romford,0.183237345873382,51.5748270531467
RML,Romiley,-2.08932674434968,53.4140134950086
ROM,Romsey,-1.49314364065697,50.9925296994487
ROO,Roose,-3.19456924931181,54.1151685187541
RSG,Rose Grove,-2.28279667242796,53.7861955461083
RSH,Rose Hill Marple,-2.076521757497,53.3962250621609
ROS,Rosyth,-3.42730673209999,56.0455208619428
RMC,Rotherham Central,-1.36043467284984,53.4322537633251
ROE,Rotherhithe,-0.0520485787878795,51.5008148899235
RNR,Roughton Road,1.29979398067226,52.9180159293353
RLN,Rowlands Castle,-0.957470764703317,50.8921721580871
ROW,Rowley Regis,-2.03087517331664,52.4773273799996
RYB,Roy Bridge,-4.83724335980539,56.8883700321788
RYN,Roydon,0.0362517047981339,51.7754849852798
RYS,Royston,-0.0269214800795917,52.0530784433586
RUA,Ruabon,-3.04313908785918,52.9871380898874
RUF,Rufford,-2.80784165368679,53.6344659969286
